{"Intersections":[{"IntersectionId":"FF0000F9","Latitude":35.675837,"Longitude":139.751291,"Radius":20.0,"GenerationNumber":0,"Name":"デモ交差点","Kana":"でもこうさてん","URL":"https://www.j-signal.jp/PicsApi/data/map/FF/FF0000F9.html","StartDate":"20200301","EndDate":"20991231","DemoFlg":1,"PedestrianSignals":[{"Name":"","Kana":""},{"Name":"","Kana":""},{"Name":"","Kana":""},{"Name":"","Kana":""},{"Name":"","Kana":""},{"Name":"","Kana":""}]},{"IntersectionId":"FF0000FA","Latitude":36.000000,"Longitude":139.000000,"Radius":1.0,"GenerationNumber":0,"Name":"恒温槽交差点","Kana":"こうおんそうこうさてん","URL":"https://www.j-signal.jp/PicsApi/data/map/FF/FF0000FA.html","StartDate":"20200301","EndDate":"20991231","DemoFlg":1,"PedestrianSignals":[{"Name":"","Kana":""},{"Name":"","Kana":""},{"Name":"","Kana":""},{"Name":"","Kana":""},{"Name":"","Kana":""},{"Name":"","Kana":""}]},{"IntersectionId":"FF0000FB","Latitude":36.055503,"Longitude":139.651688,"Radius":1.0,"GenerationNumber":0,"Name":"立会エリア交差点","Kana":"たちあいえりあこうさてん","URL":"https://www.j-signal.jp/PicsApi/data/map/FF/FF0000FB.html","StartDate":"20200301","EndDate":"20991231","DemoFlg":1,"PedestrianSignals":[{"Name":"","Kana":""},{"Name":"","Kana":""},{"Name":"","Kana":""},{"Name":"","Kana":""},{"Name":"","Kana":""},{"Name":"","Kana":""}]},{"IntersectionId":"FF0000FD","Latitude":36.054640,"Longitude":139.652658,"Radius":10.0,"GenerationNumber":0,"Name":"S棟展示室交差点","Kana":"えすとうてんじしつこうさてん","URL":"https://www.j-signal.jp/PicsApi/data/map/FF/FF0000FD.html","StartDate":"20200301","EndDate":"20991231","DemoFlg":1,"PedestrianSignals":[{"Name":"","Kana":""},{"Name":"","Kana":""},{"Name":"","Kana":""},{"Name":"","Kana":""},{"Name":"","Kana":""},{"Name":"","Kana":""}]},{"IntersectionId":"00B94D8D","Latitude":35.666354,"Longitude":140.164458,"Radius":28.0,"GenerationNumber":1,"Name":"四街道消防署前交差点","Kana":"よつかいどうしょうぼうしょまえこうさてん","URL":"https://www.j-signal.jp/PicsApi/data/map/12/00B94D8D.html","StartDate":"20200424","EndDate":"20991231","DemoFlg":0,"PedestrianSignals":[{"Name":"四街道駅・県立盲学校方向","Kana":"よつかいどうえきけんりつもうがっこうほうこう"},{"Name":"中央公園・四街道小学校方向","Kana":"ちゅうおうこうえんよつかいどうしょうがっこうほうこう"},{"Name":"","Kana":""},{"Name":"","Kana":""},{"Name":"","Kana":""},{"Name":"","Kana":""}]},{"IntersectionId":"014FB181","Latitude":34.972395,"Longitude":138.387644,"Radius":17.0,"GenerationNumber":1,"Name":"静岡駅前交差点","Kana":"しずおかえきまえこうさてん","URL":"https://www.j-signal.jp/PicsApi/data/map/22/014FB181.html","StartDate":"20200424","EndDate":"20991231","DemoFlg":0,"PedestrianSignals":[{"Name":"静岡駅前・中央郵便局間南北方向","Kana":"しずおかえきまえ・ちゅうおうゆうびんきょくかんなんぼくほうこう"},{"Name":"","Kana":""},{"Name":"","Kana":""},{"Name":"","Kana":""},{"Name":"","Kana":""},{"Name":"","Kana":""}]},{"IntersectionId":"014FB182","Latitude":34.971808,"Longitude":138.386611,"Radius":30.0,"GenerationNumber":1,"Name":"静岡中央郵便局前交差点","Kana":"しずおかちゅうおうゆうびんきょくまえこうさてん","URL":"https://www.j-signal.jp/PicsApi/data/map/22/014FB182.html","StartDate":"20200424","EndDate":"20991231","DemoFlg":0,"PedestrianSignals":[{"Name":"静岡駅前・中央郵便局間南北方向","Kana":"しずおかえきまえ・ちゅうおうゆうびんきょくかんなんぼくほうこう"},{"Name":"紺屋町・黒金町間東西方向","Kana":"こうやまち・くろがねちょうかんとうざいほうこう"},{"Name":"","Kana":""},{"Name":"","Kana":""},{"Name":"","Kana":""},{"Name":"","Kana":""}]},{"IntersectionId":"014FB183","Latitude":34.974836,"Longitude":138.385639,"Radius":27.0,"GenerationNumber":1,"Name":"江川町交差点","Kana":"えがわちょうこうさてん","URL":"https://www.j-signal.jp/PicsApi/data/map/22/014FB183.html","StartDate":"20200424","EndDate":"20991231","DemoFlg":0,"PedestrianSignals":[{"Name":"","Kana":""},{"Name":"南北方向","Kana":"なんぼくほうこう"},{"Name":"","Kana":""},{"Name":"","Kana":""},{"Name":"","Kana":""},{"Name":"","Kana":""}]},{"IntersectionId":"014FB184","Latitude":34.976041,"Longitude":138.382513,"Radius":33.0,"GenerationNumber":1,"Name":"県庁前交差点","Kana":"けんちょうまえこうさてん","URL":"https://www.j-signal.jp/PicsApi/data/map/22/014FB184.html","StartDate":"20200424","EndDate":"20991231","DemoFlg":0,"PedestrianSignals":[{"Name":"東西方向","Kana":"とうざいほうこう"},{"Name":"南北方向","Kana":"なんぼくほうこう"},{"Name":"","Kana":""},{"Name":"","Kana":""},{"Name":"","Kana":""},{"Name":"","Kana":""}]},{"IntersectionId":"014FB186","Latitude":34.979620,"Longitude":138.387656,"Radius":34.0,"GenerationNumber":1,"Name":"水落交番西交差点","Kana":"みずおちこうばんにしこうさてん","URL":"https://www.j-signal.jp/PicsApi/data/map/22/014FB186.html","StartDate":"20200424","EndDate":"20991231","DemoFlg":0,"PedestrianSignals":[{"Name":"南北方向","Kana":"なんぼくほうこう"},{"Name":"","Kana":""},{"Name":"東西方向","Kana":"とうざいほうこう"},{"Name":"","Kana":""},{"Name":"","Kana":""},{"Name":"","Kana":""}]},{"IntersectionId":"014FB188","Latitude":34.976871,"Longitude":138.380450,"Radius":24.0,"GenerationNumber":1,"Name":"日赤前交差点","Kana":"にっせきまえこうさてん","URL":"https://www.j-signal.jp/PicsApi/data/map/22/014FB188.html","StartDate":"20200424","EndDate":"20991231","DemoFlg":0,"PedestrianSignals":[{"Name":"東西方向","Kana":"とうざいほうこう"},{"Name":"南北方向","Kana":"なんぼくほうこう"},{"Name":"","Kana":""},{"Name":"","Kana":""},{"Name":"","Kana":""},{"Name":"","Kana":""}]},{"IntersectionId":"014FB18A","Latitude":34.977476,"Longitude":138.386963,"Radius":24.0,"GenerationNumber":1,"Name":"鷹匠２丁目交差点","Kana":"たかじょうにちょうめこうさてん","URL":"https://www.j-signal.jp/PicsApi/data/map/22/014FB18A.html","StartDate":"20200424","EndDate":"20991231","DemoFlg":0,"PedestrianSignals":[{"Name":"南北方向","Kana":"なんぼくほうこう"},{"Name":"東西方向","Kana":"とうざいほうこう"},{"Name":"","Kana":""},{"Name":"","Kana":""},{"Name":"","Kana":""},{"Name":"","Kana":""}]},{"IntersectionId":"014FB18B","Latitude":35.120153,"Longitude":138.919258,"Radius":25.0,"GenerationNumber":1,"Name":"大社前交差点","Kana":"たいしゃまえこうさてん","URL":"https://www.j-signal.jp/PicsApi/data/map/22/014FB18B.html","StartDate":"20200424","EndDate":"20991231","DemoFlg":0,"PedestrianSignals":[{"Name":"東西方向","Kana":"とうざいほうこう"},{"Name":"","Kana":""},{"Name":"南北方向","Kana":"なんぼくほうこう"},{"Name":"","Kana":""},{"Name":"","Kana":""},{"Name":"","Kana":""}]},{"IntersectionId":"014FB18E","Latitude":35.120053,"Longitude":138.918550,"Radius":25.0,"GenerationNumber":1,"Name":"大社西交差点","Kana":"たいしゃにしこうさてん","URL":"https://www.j-signal.jp/PicsApi/data/map/22/014FB18E.html","StartDate":"20200424","EndDate":"20991231","DemoFlg":0,"PedestrianSignals":[{"Name":"田町駅入口・三島大社間","Kana":"たまちえきいりぐち・みしまたいしゃかん"},{"Name":"市役所・大宮町間","Kana":"しやくしょ・おおみやちょうかん"},{"Name":"","Kana":""},{"Name":"","Kana":""},{"Name":"","Kana":""},{"Name":"","Kana":""}]},{"IntersectionId":"014FB190","Latitude":35.122739,"Longitude":138.913973,"Radius":24.0,"GenerationNumber":1,"Name":"白滝公園交差点","Kana":"しらたきこうえんこうさてん","URL":"https://www.j-signal.jp/PicsApi/data/map/22/014FB190.html","StartDate":"20200424","EndDate":"20991231","DemoFlg":0,"PedestrianSignals":[{"Name":"南北方向","Kana":"なんぼくほうこう"},{"Name":"東西方向","Kana":"とうざいほうこう"},{"Name":"","Kana":""},{"Name":"","Kana":""},{"Name":"","Kana":""},{"Name":"","Kana":""}]},{"IntersectionId":"014FB194","Latitude":35.119625,"Longitude":138.915997,"Radius":21.0,"GenerationNumber":1,"Name":"田町駅入口交差点","Kana":"たまちえきいりぐちこうさてん","URL":"https://www.j-signal.jp/PicsApi/data/map/22/014FB194.html","StartDate":"20200424","EndDate":"20991231","DemoFlg":0,"PedestrianSignals":[{"Name":"東西方向","Kana":"とうざいほうこう"},{"Name":"","Kana":""},{"Name":"南北方向","Kana":"なんぼくほうこう"},{"Name":"","Kana":""},{"Name":"","Kana":""},{"Name":"","Kana":""}]},{"IntersectionId":"014FB195","Latitude":35.124285,"Longitude":138.914035,"Radius":20.0,"GenerationNumber":1,"Name":"文化会館北交差点","Kana":"ぶんかかいかんきたこうさてん","URL":"https://www.j-signal.jp/PicsApi/data/map/22/014FB195.html","StartDate":"20200424","EndDate":"20991231","DemoFlg":0,"PedestrianSignals":[{"Name":"南北方向","Kana":"なんぼくほうこう"},{"Name":"","Kana":""},{"Name":"東西方向","Kana":"とうざいほうこう"},{"Name":"","Kana":""},{"Name":"","Kana":""},{"Name":"","Kana":""}]},{"IntersectionId":"014FB196","Latitude":35.120835,"Longitude":138.918097,"Radius":28.0,"GenerationNumber":1,"Name":"浦島神社交差点","Kana":"うらしまじんじゃこうさてん","URL":"https://www.j-signal.jp/PicsApi/data/map/22/014FB196.html","StartDate":"20200424","EndDate":"20991231","DemoFlg":0,"PedestrianSignals":[{"Name":"南北方向","Kana":"なんぼくほうこう"},{"Name":"東西方向","Kana":"とうざいほうこう"},{"Name":"","Kana":""},{"Name":"","Kana":""},{"Name":"","Kana":""},{"Name":"","Kana":""}]},{"IntersectionId":"014FB197","Latitude":35.118893,"Longitude":138.919080,"Radius":22.0,"GenerationNumber":1,"Name":"市役所前交差点","Kana":"しやくしょまえこうさてん","URL":"https://www.j-signal.jp/PicsApi/data/map/22/014FB197.html","StartDate":"20200424","EndDate":"20991231","DemoFlg":0,"PedestrianSignals":[{"Name":"南北方向","Kana":"なんぼくほうこう"},{"Name":"東西方向","Kana":"とうざいほうこう"},{"Name":"","Kana":""},{"Name":"","Kana":""},{"Name":"","Kana":""},{"Name":"","Kana":""}]},{"IntersectionId":"003D0CE9","Latitude":38.259729,"Longitude":140.879953,"Radius":33.0,"GenerationNumber":1,"Name":"バスプール前交差点","Kana":"ばすぷーるまえこうさてん","URL":"https://www.j-signal.jp/PicsApi/data/map/04/003D0CE9.html","StartDate":"20200424","EndDate":"20991231","DemoFlg":0,"PedestrianSignals":[{"Name":"南町通り","Kana":"みなみまちどおり"},{"Name":"愛宕上杉通り","Kana":"あたごかみすぎどおり"},{"Name":"","Kana":""},{"Name":"","Kana":""},{"Name":"","Kana":""},{"Name":"","Kana":""}]},{"IntersectionId":"003D0CEA","Latitude":38.260849,"Longitude":140.879348,"Radius":51.0,"GenerationNumber":1,"Name":"中央１丁目交差点","Kana":"ちゅうおういっちょうめこうさてん","URL":"https://www.j-signal.jp/PicsApi/data/map/04/003D0CEA.html","StartDate":"20200424","EndDate":"20991231","DemoFlg":0,"PedestrianSignals":[{"Name":"青葉通り","Kana":"あおばどおり"},{"Name":"愛宕上杉通り","Kana":"あたごかみすぎどおり"},{"Name":"","Kana":""},{"Name":"","Kana":""},{"Name":"","Kana":""},{"Name":"","Kana":""}]},{"IntersectionId":"003D0CED","Latitude":38.262999,"Longitude":140.878074,"Radius":43.0,"GenerationNumber":1,"Name":"中央２丁目交差点","Kana":"ちゅうおうにちょうめこうさてん","URL":"https://www.j-signal.jp/PicsApi/data/map/04/003D0CED.html","StartDate":"20200424","EndDate":"20991231","DemoFlg":0,"PedestrianSignals":[{"Name":"愛宕上杉通り","Kana":"あたごかみすぎどおり"},{"Name":"広瀬通り","Kana":"ひろせどおり"},{"Name":"","Kana":""},{"Name":"","Kana":""},{"Name":"","Kana":""},{"Name":"","Kana":""}]},{"IntersectionId":"003D0CFC","Latitude":38.263151,"Longitude":140.880528,"Radius":45.0,"GenerationNumber":1,"Name":"駅前広瀬交差点","Kana":"えきまえひろせこうさてん","URL":"https://www.j-signal.jp/PicsApi/data/map/04/003D0CFC.html","StartDate":"20200424","EndDate":"20991231","DemoFlg":0,"PedestrianSignals":[{"Name":"駅前通り","Kana":"えきまえどおり"},{"Name":"広瀬通り","Kana":"ひろせどおり"},{"Name":"","Kana":""},{"Name":"","Kana":""},{"Name":"","Kana":""},{"Name":"","Kana":""}]},{"IntersectionId":"003D0D00","Latitude":38.262146,"Longitude":140.880837,"Radius":26.0,"GenerationNumber":1,"Name":"駅前名掛丁交差点","Kana":"えきまえなかけちょうこうさてん","URL":"https://www.j-signal.jp/PicsApi/data/map/04/003D0D00.html","StartDate":"20200424","EndDate":"20991231","DemoFlg":0,"PedestrianSignals":[{"Name":"スクランブル横断歩道","Kana":"すくらんぶるおうだんほどう"},{"Name":"","Kana":""},{"Name":"","Kana":""},{"Name":"","Kana":""},{"Name":"","Kana":""},{"Name":"","Kana":""}]},{"IntersectionId":"003D0D11","Latitude":38.267446,"Longitude":140.870682,"Radius":33.0,"GenerationNumber":1,"Name":"県庁市役所前交差点","Kana":"けんちょうしやくしょまえこうさてん","URL":"https://www.j-signal.jp/PicsApi/data/map/04/003D0D11.html","StartDate":"20200424","EndDate":"20991231","DemoFlg":0,"PedestrianSignals":[{"Name":"勾当台通り","Kana":"こうとうだいどおり"},{"Name":"東西","Kana":"とうざい"},{"Name":"","Kana":""},{"Name":"","Kana":""},{"Name":"","Kana":""},{"Name":"","Kana":""}]},{"IntersectionId":"003D0D3B","Latitude":38.251271,"Longitude":140.880737,"Radius":43.0,"GenerationNumber":1,"Name":"福祉プラザ前交差点","Kana":"ふくしぷらざまえこうさてん","URL":"https://www.j-signal.jp/PicsApi/data/map/04/003D0D3B.html","StartDate":"20200424","EndDate":"20991231","DemoFlg":0,"PedestrianSignals":[{"Name":"福祉プラザ前","Kana":"ふくしぷらざまえ"},{"Name":"東北学院大学前","Kana":"とうほくがくいんまえ"},{"Name":"","Kana":""},{"Name":"","Kana":""},{"Name":"","Kana":""},{"Name":"","Kana":""}]},{"IntersectionId":"003D14BD","Latitude":38.275421,"Longitude":140.873539,"Radius":32.0,"GenerationNumber":1,"Name":"上杉６丁目交差点","Kana":"かみすぎろくちょうめこうさてん","URL":"https://www.j-signal.jp/PicsApi/data/map/04/003D14BD.html","StartDate":"20200424","EndDate":"20991231","DemoFlg":0,"PedestrianSignals":[{"Name":"愛宕上杉通り","Kana":"あたごかみすぎどおり"},{"Name":"北六番丁通り","Kana":"きたろくばんちょうどおり"},{"Name":"","Kana":""},{"Name":"","Kana":""},{"Name":"","Kana":""},{"Name":"","Kana":""}]},{"IntersectionId":"003D14C0","Latitude":38.275916,"Longitude":140.877132,"Radius":23.0,"GenerationNumber":1,"Name":"附属小学校入口交差点","Kana":"ふぞくしょうがっこういりぐちこうさてん","URL":"https://www.j-signal.jp/PicsApi/data/map/04/003D14C0.html","StartDate":"20200424","EndDate":"20991231","DemoFlg":0,"PedestrianSignals":[{"Name":"北六番丁通り","Kana":"きたろくばんちょうどおり"},{"Name":"中杉山通り","Kana":"なかすぎやまどおり"},{"Name":"","Kana":""},{"Name":"","Kana":""},{"Name":"","Kana":""},{"Name":"","Kana":""}]},{"IntersectionId":"003D14CE","Latitude":38.276148,"Longitude":140.879303,"Radius":19.0,"GenerationNumber":1,"Name":"視覚支援学校入口交差点","Kana":"しかくしえんがっこういりぐちこうさてん","URL":"https://www.j-signal.jp/PicsApi/data/map/04/003D14CE.html","StartDate":"20200424","EndDate":"20991231","DemoFlg":0,"PedestrianSignals":[{"Name":"北六番丁通り","Kana":"きたろくばんちょうどおり"},{"Name":"二本杉通り","Kana":"にほんすぎどおり"},{"Name":"","Kana":""},{"Name":"","Kana":""},{"Name":"","Kana":""},{"Name":"","Kana":""}]},{"IntersectionId":"003D150B","Latitude":38.273054,"Longitude":140.873987,"Radius":40.0,"GenerationNumber":1,"Name":"上杉１丁目交差点","Kana":"かみすぎいっちょうめこうさてん","URL":"https://www.j-signal.jp/PicsApi/data/map/04/003D150B.html","StartDate":"20200424","EndDate":"20991231","DemoFlg":0,"PedestrianSignals":[{"Name":"愛宕上杉通り","Kana":"あたごかみすぎどおり"},{"Name":"北四番丁通り","Kana":"きたよばんちょうどおり"},{"Name":"","Kana":""},{"Name":"","Kana":""},{"Name":"","Kana":""},{"Name":"","Kana":""}]},{"IntersectionId":"003D1595","Latitude":38.274036,"Longitude":140.879704,"Radius":25.0,"GenerationNumber":1,"Name":"上杉４丁目郵便局前交差点","Kana":"かみすぎよんちょうめゆうびんきょくまえこうさてん","URL":"https://www.j-signal.jp/PicsApi/data/map/04/003D1595.html","StartDate":"20200424","EndDate":"20991231","DemoFlg":0,"PedestrianSignals":[{"Name":"北四番丁通り","Kana":"きたよばんちょうどおり"},{"Name":"二本杉通り","Kana":"にほんすぎどおり"},{"Name":"","Kana":""},{"Name":"","Kana":""},{"Name":"","Kana":""},{"Name":"","Kana":""}]},{"IntersectionId":"003D1929","Latitude":38.259887,"Longitude":140.884731,"Radius":35.0,"GenerationNumber":1,"Name":"仙台駅東口交差点","Kana":"せんだいえきひがしぐちこうさてん","URL":"https://www.j-signal.jp/PicsApi/data/map/04/003D1929.html","StartDate":"20200424","EndDate":"20991231","DemoFlg":0,"PedestrianSignals":[{"Name":"宮城野通り","Kana":"みやぎのどおり"},{"Name":"東七番丁通り","Kana":"ひがししちばんちょうどおり"},{"Name":"","Kana":""},{"Name":"","Kana":""},{"Name":"","Kana":""},{"Name":"","Kana":""}]},{"IntersectionId":"003D192A","Latitude":38.259747,"Longitude":140.886156,"Radius":38.0,"GenerationNumber":1,"Name":"榴岡２丁目交差点","Kana":"つつじがおかにちょうめこうさてん","URL":"https://www.j-signal.jp/PicsApi/data/map/04/003D192A.html","StartDate":"20200424","EndDate":"20991231","DemoFlg":0,"PedestrianSignals":[{"Name":"宮城野通り","Kana":"みやぎのどおり"},{"Name":"東八番丁通り","Kana":"ひがしはちばんちょうどおり"},{"Name":"","Kana":""},{"Name":"","Kana":""},{"Name":"","Kana":""},{"Name":"","Kana":""}]},{"IntersectionId":"003D192C","Latitude":38.301394,"Longitude":140.954531,"Radius":27.0,"GenerationNumber":1,"Name":"岩切駅前交差点","Kana":"いわきりえきまえこうさてん","URL":"https://www.j-signal.jp/PicsApi/data/map/04/003D192C.html","StartDate":"20200424","EndDate":"20991231","DemoFlg":0,"PedestrianSignals":[{"Name":"すべての方向","Kana":"すべてのほうこう"},{"Name":"","Kana":""},{"Name":"","Kana":""},{"Name":"","Kana":""},{"Name":"","Kana":""},{"Name":"","Kana":""}]},{"IntersectionId":"003D194E","Latitude":38.259105,"Longitude":140.891722,"Radius":39.0,"GenerationNumber":1,"Name":"榴岡４丁目交差点","Kana":"つつじがおかよんちょうめこうさてん","URL":"https://www.j-signal.jp/PicsApi/data/map/04/003D194E.html","StartDate":"20200424","EndDate":"20991231","DemoFlg":0,"PedestrianSignals":[{"Name":"宮城野通り","Kana":"みやぎのどおり"},{"Name":"南北","Kana":"なんぼく"},{"Name":"","Kana":""},{"Name":"","Kana":""},{"Name":"","Kana":""},{"Name":"","Kana":""}]},{"IntersectionId":"003D1961","Latitude":38.259393,"Longitude":140.889153,"Radius":36.0,"GenerationNumber":1,"Name":"榴岡図書館東側交差点","Kana":"つつじがおかとしょかんひがしがわこうさてん","URL":"https://www.j-signal.jp/PicsApi/data/map/04/003D1961.html","StartDate":"20200424","EndDate":"20991231","DemoFlg":0,"PedestrianSignals":[{"Name":"宮城野通り","Kana":"みやぎのどおり"},{"Name":"東九番丁通り","Kana":"ひがしくばんちょうどおり"},{"Name":"","Kana":""},{"Name":"","Kana":""},{"Name":"","Kana":""},{"Name":"","Kana":""}]},{"IntersectionId":"003D19AA","Latitude":38.260559,"Longitude":140.892014,"Radius":32.0,"GenerationNumber":1,"Name":"榴ヶ岡交差点","Kana":"つつじがおかこうさてん","URL":"https://www.j-signal.jp/PicsApi/data/map/04/003D19AA.html","StartDate":"20200424","EndDate":"20991231","DemoFlg":0,"PedestrianSignals":[{"Name":"南北","Kana":"なんぼく"},{"Name":"東西","Kana":"とうざい"},{"Name":"","Kana":""},{"Name":"","Kana":""},{"Name":"","Kana":""},{"Name":"","Kana":""}]},{"IntersectionId":"003D19AC","Latitude":38.262245,"Longitude":140.892359,"Radius":39.0,"GenerationNumber":1,"Name":"二十人町交差点","Kana":"にじゅうにんまちこうさてん","URL":"https://www.j-signal.jp/PicsApi/data/map/04/003D19AC.html","StartDate":"20200424","EndDate":"20991231","DemoFlg":0,"PedestrianSignals":[{"Name":"元寺小路福室線","Kana":"もとでらこうじふくむろせん"},{"Name":"宮沢根白石線","Kana":"みやざわねのしろいしせん"},{"Name":"","Kana":""},{"Name":"","Kana":""},{"Name":"","Kana":""},{"Name":"","Kana":""}]},{"IntersectionId":"003D19B4","Latitude":38.263785,"Longitude":140.886877,"Radius":28.0,"GenerationNumber":1,"Name":"鉄砲町西交差点","Kana":"てっぽうまちにしこうさてん","URL":"https://www.j-signal.jp/PicsApi/data/map/04/003D19B4.html","StartDate":"20200424","EndDate":"20991231","DemoFlg":0,"PedestrianSignals":[{"Name":"東西","Kana":"とうざい"},{"Name":"南北","Kana":"なんぼく"},{"Name":"","Kana":""},{"Name":"","Kana":""},{"Name":"","Kana":""},{"Name":"","Kana":""}]},{"IntersectionId":"003D19BB","Latitude":38.303477,"Longitude":140.955069,"Radius":35.0,"GenerationNumber":1,"Name":"岩切分台１丁目交差点","Kana":"いわきりぶんだいいっちょうめこうさてん","URL":"https://www.j-signal.jp/PicsApi/data/map/04/003D19BB.html","StartDate":"20200424","EndDate":"20991231","DemoFlg":0,"PedestrianSignals":[{"Name":"東西","Kana":"とうざい"},{"Name":"南北","Kana":"なんぼく"},{"Name":"","Kana":""},{"Name":"","Kana":""},{"Name":"","Kana":""},{"Name":"","Kana":""}]},{"IntersectionId":"003D19C6","Latitude":38.262843,"Longitude":140.886703,"Radius":35.0,"GenerationNumber":1,"Name":"二十人町西２番交差点","Kana":"にじゅうにんまちにしにばんこうさてん","URL":"https://www.j-signal.jp/PicsApi/data/map/04/003D19C6.html","StartDate":"20200424","EndDate":"20991231","DemoFlg":0,"PedestrianSignals":[{"Name":"元寺小路福室線","Kana":"もとでらこうじふくむろせん"},{"Name":"東八番丁通り","Kana":"ひがしはちばんちょうどおり"},{"Name":"","Kana":""},{"Name":"","Kana":""},{"Name":"","Kana":""},{"Name":"","Kana":""}]},{"IntersectionId":"003D19C7","Latitude":38.262548,"Longitude":140.889548,"Radius":35.0,"GenerationNumber":1,"Name":"二十人町西１番交差点","Kana":"にじゅうにんまちにしいちばんこうさてん","URL":"https://www.j-signal.jp/PicsApi/data/map/04/003D19C7.html","StartDate":"20200424","EndDate":"20991231","DemoFlg":0,"PedestrianSignals":[{"Name":"元寺小路福室線","Kana":"もとでらこうじふくむろせん"},{"Name":"東九番丁通り","Kana":"ひがしくばんちょうどおり"},{"Name":"","Kana":""},{"Name":"","Kana":""},{"Name":"","Kana":""},{"Name":"","Kana":""}]},{"IntersectionId":"003D1CDB","Latitude":38.322446,"Longitude":140.882947,"Radius":33.0,"GenerationNumber":1,"Name":"泉中央交差点","Kana":"いずみちゅうおうこうさてん","URL":"https://www.j-signal.jp/PicsApi/data/map/04/003D1CDB.html","StartDate":"20200424","EndDate":"20991231","DemoFlg":0,"PedestrianSignals":[{"Name":"東西","Kana":"とうざい"},{"Name":"仙台泉線","Kana":"せんだいいずみせん"},{"Name":"","Kana":""},{"Name":"","Kana":""},{"Name":"","Kana":""},{"Name":"","Kana":""}]},{"IntersectionId":"003D1CE9","Latitude":38.325302,"Longitude":140.880478,"Radius":28.0,"GenerationNumber":1,"Name":"イズミティ２１前交差点","Kana":"いずみてぃにじゅういちまえこうさてん","URL":"https://www.j-signal.jp/PicsApi/data/map/04/003D1CE9.html","StartDate":"20200424","EndDate":"20991231","DemoFlg":0,"PedestrianSignals":[{"Name":"スクランブル横断歩道","Kana":"すくらんぶるおうだんほどう"},{"Name":"","Kana":""},{"Name":"","Kana":""},{"Name":"","Kana":""},{"Name":"","Kana":""},{"Name":"","Kana":""}]},{"IntersectionId":"003D1CFB","Latitude":38.325359,"Longitude":140.882883,"Radius":32.0,"GenerationNumber":1,"Name":"泉区役所前交差点","Kana":"いずみくやくしょまえこうさてん","URL":"https://www.j-signal.jp/PicsApi/data/map/04/003D1CFB.html","StartDate":"20200424","EndDate":"20991231","DemoFlg":0,"PedestrianSignals":[{"Name":"仙台泉線","Kana":"せんだいいずみせん"},{"Name":"東西","Kana":"とうざい"},{"Name":"","Kana":""},{"Name":"","Kana":""},{"Name":"","Kana":""},{"Name":"","Kana":""}]},{"IntersectionId":"003D1CFF","Latitude":38.322393,"Longitude":140.880509,"Radius":30.0,"GenerationNumber":1,"Name":"泉中央駅前交差点","Kana":"いずみちゅうおうえきまえこうさてん","URL":"https://www.j-signal.jp/PicsApi/data/map/04/003D1CFF.html","StartDate":"20200424","EndDate":"20991231","DemoFlg":0,"PedestrianSignals":[{"Name":"泉塩釜線","Kana":"いずみしおがません"},{"Name":"南北","Kana":"なんぼく"},{"Name":"","Kana":""},{"Name":"","Kana":""},{"Name":"","Kana":""},{"Name":"","Kana":""}]},{"IntersectionId":"003D1D09","Latitude":38.320852,"Longitude":140.882935,"Radius":20.0,"GenerationNumber":1,"Name":"仙台スタジアム前交差点","Kana":"せんだいすたじあむまえこうさてん","URL":"https://www.j-signal.jp/PicsApi/data/map/04/003D1D09.html","StartDate":"20200424","EndDate":"20991231","DemoFlg":0,"PedestrianSignals":[{"Name":"仙台泉線","Kana":"せんだいいずみせん"},{"Name":"東西","Kana":"とうざい"},{"Name":"","Kana":""},{"Name":"","Kana":""},{"Name":"","Kana":""},{"Name":"","Kana":""}]},{"IntersectionId":"003D1D27","Latitude":38.327219,"Longitude":140.880379,"Radius":28.0,"GenerationNumber":1,"Name":"支援センター入口交差点","Kana":"しえんせんたーいりぐちこうさてん","URL":"https://www.j-signal.jp/PicsApi/data/map/04/003D1D27.html","StartDate":"20200424","EndDate":"20991231","DemoFlg":0,"PedestrianSignals":[{"Name":"東西","Kana":"とうざい"},{"Name":"南北","Kana":"なんぼく"},{"Name":"","Kana":""},{"Name":"","Kana":""},{"Name":"","Kana":""},{"Name":"","Kana":""}]},{"IntersectionId":"003D1D29","Latitude":38.323882,"Longitude":140.880475,"Radius":26.0,"GenerationNumber":1,"Name":"泉中央駅西口交差点","Kana":"いずみちゅうおうえきにしぐちこうさてん","URL":"https://www.j-signal.jp/PicsApi/data/map/04/003D1D29.html","StartDate":"20200424","EndDate":"20991231","DemoFlg":0,"PedestrianSignals":[{"Name":"南北","Kana":"なんぼく"},{"Name":"東西","Kana":"とうざい"},{"Name":"","Kana":""},{"Name":"","Kana":""},{"Name":"","Kana":""},{"Name":"","Kana":""}]},{"IntersectionId":"003D2125","Latitude":38.328987,"Longitude":140.973243,"Radius":30.0,"GenerationNumber":1,"Name":"利府消防署南側交差点","Kana":"りふしょうぼうしょみなみがわこうさてん","URL":"https://www.j-signal.jp/PicsApi/data/map/04/003D2125.html","StartDate":"20200424","EndDate":"20991231","DemoFlg":0,"PedestrianSignals":[{"Name":"東西","Kana":"とうざい"},{"Name":"南北","Kana":"なんぼく"},{"Name":"","Kana":""},{"Name":"","Kana":""},{"Name":"","Kana":""},{"Name":"","Kana":""}]},{"IntersectionId":"003D2126","Latitude":38.328939,"Longitude":140.976721,"Radius":32.0,"GenerationNumber":1,"Name":"利府街道役場入口交差点","Kana":"りふかいどうやくばいりぐちこうさてん","URL":"https://www.j-signal.jp/PicsApi/data/map/04/003D2126.html","StartDate":"20200424","EndDate":"20991231","DemoFlg":0,"PedestrianSignals":[{"Name":"利府街道","Kana":"りふかいどう"},{"Name":"塩釜吉岡線","Kana":"しおがまよしおかせん"},{"Name":"","Kana":""},{"Name":"","Kana":""},{"Name":"","Kana":""},{"Name":"","Kana":""}]},{"IntersectionId":"003D212C","Latitude":38.328825,"Longitude":140.981539,"Radius":25.0,"GenerationNumber":1,"Name":"利府郵便局前交差点","Kana":"りふゆうびんきょくまえこうさてん","URL":"https://www.j-signal.jp/PicsApi/data/map/04/003D212C.html","StartDate":"20200424","EndDate":"20991231","DemoFlg":0,"PedestrianSignals":[{"Name":"東西","Kana":"とうざい"},{"Name":"南北","Kana":"なんぼく"},{"Name":"","Kana":""},{"Name":"","Kana":""},{"Name":"","Kana":""},{"Name":"","Kana":""}]},{"IntersectionId":"003D212D","Latitude":38.329089,"Longitude":140.982995,"Radius":23.0,"GenerationNumber":1,"Name":"利府駅西側交差点","Kana":"りふえきにしがわこうさてん","URL":"https://www.j-signal.jp/PicsApi/data/map/04/003D212D.html","StartDate":"20200424","EndDate":"20991231","DemoFlg":0,"PedestrianSignals":[{"Name":"東西","Kana":"とうざい"},{"Name":"南北","Kana":"なんぼく"},{"Name":"","Kana":""},{"Name":"","Kana":""},{"Name":"","Kana":""},{"Name":"","Kana":""}]},{"IntersectionId":"003D213F","Latitude":38.330744,"Longitude":140.950717,"Radius":33.0,"GenerationNumber":1,"Name":"第１駐車場前交差点","Kana":"だいいちちゅうしゃじょうまえこうさてん","URL":"https://www.j-signal.jp/PicsApi/data/map/04/003D213F.html","StartDate":"20200424","EndDate":"20991231","DemoFlg":0,"PedestrianSignals":[{"Name":"すべての方向","Kana":"すべてのほうこう"},{"Name":"","Kana":""},{"Name":"","Kana":""},{"Name":"","Kana":""},{"Name":"","Kana":""},{"Name":"","Kana":""}]},{"IntersectionId":"003D2150","Latitude":38.334366,"Longitude":140.955342,"Radius":30.0,"GenerationNumber":1,"Name":"宮城県総合運動公園入口交差点","Kana":"みやぎけんそうごううんどうこうえんいりぐちこうさてん","URL":"https://www.j-signal.jp/PicsApi/data/map/04/003D2150.html","StartDate":"20200424","EndDate":"20991231","DemoFlg":0,"PedestrianSignals":[{"Name":"すべての方向","Kana":"すべてのほうこう"},{"Name":"","Kana":""},{"Name":"","Kana":""},{"Name":"","Kana":""},{"Name":"","Kana":""},{"Name":"","Kana":""}]},{"IntersectionId":"003D2163","Latitude":38.332756,"Longitude":140.951797,"Radius":28.0,"GenerationNumber":1,"Name":"第１駐車場北側交差点","Kana":"だいいちちゅうしゃじょうきたがわこうさてん","URL":"https://www.j-signal.jp/PicsApi/data/map/04/003D2163.html","StartDate":"20200424","EndDate":"20991231","DemoFlg":0,"PedestrianSignals":[{"Name":"すべての方向","Kana":"すべてのほうこう"},{"Name":"","Kana":""},{"Name":"","Kana":""},{"Name":"","Kana":""},{"Name":"","Kana":""},{"Name":"","Kana":""}]},{"IntersectionId":"003D4399","Latitude":38.575138,"Longitude":140.959748,"Radius":24.0,"GenerationNumber":1,"Name":"十日町交差点","Kana":"とうかまちこうさてん","URL":"https://www.j-signal.jp/PicsApi/data/map/04/003D4399.html","StartDate":"20200424","EndDate":"20991231","DemoFlg":0,"PedestrianSignals":[{"Name":"南北","Kana":"なんぼく"},{"Name":"東西","Kana":"とうざい"},{"Name":"","Kana":""},{"Name":"","Kana":""},{"Name":"","Kana":""},{"Name":"","Kana":""}]},{"IntersectionId":"003D439B","Latitude":38.573678,"Longitude":140.964765,"Radius":24.0,"GenerationNumber":1,"Name":"駅前大通交差点","Kana":"えきまえおおどおりこうさてん","URL":"https://www.j-signal.jp/PicsApi/data/map/04/003D439B.html","StartDate":"20200424","EndDate":"20991231","DemoFlg":0,"PedestrianSignals":[{"Name":"南北","Kana":"なんぼく"},{"Name":"東西","Kana":"とうざい"},{"Name":"","Kana":""},{"Name":"","Kana":""},{"Name":"","Kana":""},{"Name":"","Kana":""}]},{"IntersectionId":"003D43B0","Latitude":38.572834,"Longitude":140.959061,"Radius":24.0,"GenerationNumber":1,"Name":"保健福祉プラザ入口交差点","Kana":"ほけんふくしぷらざいりぐちこうさてん","URL":"https://www.j-signal.jp/PicsApi/data/map/04/003D43B0.html","StartDate":"20200424","EndDate":"20991231","DemoFlg":0,"PedestrianSignals":[{"Name":"南北","Kana":"なんぼく"},{"Name":"東西","Kana":"とうざい"},{"Name":"","Kana":""},{"Name":"","Kana":""},{"Name":"","Kana":""},{"Name":"","Kana":""}]},{"IntersectionId":"003D43F5","Latitude":38.568584,"Longitude":140.968479,"Radius":28.0,"GenerationNumber":1,"Name":"年金事務所北側交差点","Kana":"ねんきんじむしょきたがわこうさてん","URL":"https://www.j-signal.jp/PicsApi/data/map/04/003D43F5.html","StartDate":"20200424","EndDate":"20991231","DemoFlg":0,"PedestrianSignals":[{"Name":"東西","Kana":"とうざい"},{"Name":"南北","Kana":"なんぼく"},{"Name":"","Kana":""},{"Name":"","Kana":""},{"Name":"","Kana":""},{"Name":"","Kana":""}]},{"IntersectionId":"003D43FF","Latitude":38.572929,"Longitude":140.968699,"Radius":30.0,"GenerationNumber":1,"Name":"古川駅北東角交差点","Kana":"ふるかわえきほくとうかどこうさてん","URL":"https://www.j-signal.jp/PicsApi/data/map/04/003D43FF.html","StartDate":"20200424","EndDate":"20991231","DemoFlg":0,"PedestrianSignals":[{"Name":"東西","Kana":"とうざい"},{"Name":"南北","Kana":"なんぼく"},{"Name":"","Kana":""},{"Name":"","Kana":""},{"Name":"","Kana":""},{"Name":"","Kana":""}]},{"IntersectionId":"003D4409","Latitude":38.568728,"Longitude":140.967667,"Radius":32.0,"GenerationNumber":1,"Name":"古川駅南東角交差点","Kana":"ふるかわえきなんとうかどこうさてん","URL":"https://www.j-signal.jp/PicsApi/data/map/04/003D4409.html","StartDate":"20200424","EndDate":"20991231","DemoFlg":0,"PedestrianSignals":[{"Name":"東西","Kana":"とうざい"},{"Name":"南北","Kana":"なんぼく"},{"Name":"","Kana":""},{"Name":"","Kana":""},{"Name":"","Kana":""},{"Name":"","Kana":""}]},{"IntersectionId":"003D4411","Latitude":38.567292,"Longitude":140.967087,"Radius":31.0,"GenerationNumber":1,"Name":"ハローワーク北側交差点","Kana":"はろーわーくきたがわこうさてん","URL":"https://www.j-signal.jp/PicsApi/data/map/04/003D4411.html","StartDate":"20200424","EndDate":"20991231","DemoFlg":0,"PedestrianSignals":[{"Name":"南北","Kana":"なんぼく"},{"Name":"東西","Kana":"とうざい"},{"Name":"","Kana":""},{"Name":"","Kana":""},{"Name":"","Kana":""},{"Name":"","Kana":""}]},{"IntersectionId":"003D442A","Latitude":38.566567,"Longitude":140.970783,"Radius":27.0,"GenerationNumber":1,"Name":"裁判所東側交差点","Kana":"さいばんしょひがしがわこうさてん","URL":"https://www.j-signal.jp/PicsApi/data/map/04/003D442A.html","StartDate":"20200424","EndDate":"20991231","DemoFlg":0,"PedestrianSignals":[{"Name":"東西","Kana":"とうざい"},{"Name":"南北","Kana":"なんぼく"},{"Name":"","Kana":""},{"Name":"","Kana":""},{"Name":"","Kana":""},{"Name":"","Kana":""}]},{"IntersectionId":"003D442D","Latitude":38.566026,"Longitude":140.973579,"Radius":18.0,"GenerationNumber":1,"Name":"合同庁舎西側交差点","Kana":"ごうどうちょうしゃにしがわこうさてん","URL":"https://www.j-signal.jp/PicsApi/data/map/04/003D442D.html","StartDate":"20200424","EndDate":"20991231","DemoFlg":0,"PedestrianSignals":[{"Name":"東西","Kana":"とうざい"},{"Name":"南北","Kana":"なんぼく"},{"Name":"","Kana":""},{"Name":"","Kana":""},{"Name":"","Kana":""},{"Name":"","Kana":""}]},{"IntersectionId":"003D442E","Latitude":38.567489,"Longitude":140.974033,"Radius":20.0,"GenerationNumber":1,"Name":"合同庁舎北側交差点","Kana":"ごうどうちょうしゃきたがわこうさてん","URL":"https://www.j-signal.jp/PicsApi/data/map/04/003D442E.html","StartDate":"20200424","EndDate":"20991231","DemoFlg":0,"PedestrianSignals":[{"Name":"東西","Kana":"とうざい"},{"Name":"南北","Kana":"なんぼく"},{"Name":"","Kana":""},{"Name":"","Kana":""},{"Name":"","Kana":""},{"Name":"","Kana":""}]},{"IntersectionId":"003D4434","Latitude":38.568052,"Longitude":140.971253,"Radius":29.0,"GenerationNumber":1,"Name":"あさひ西公園北側交差点","Kana":"あさひにしこうえんきたがわこうさてん","URL":"https://www.j-signal.jp/PicsApi/data/map/04/003D4434.html","StartDate":"20200424","EndDate":"20991231","DemoFlg":0,"PedestrianSignals":[{"Name":"東西","Kana":"とうざい"},{"Name":"南北","Kana":"なんぼく"},{"Name":"","Kana":""},{"Name":"","Kana":""},{"Name":"","Kana":""},{"Name":"","Kana":""}]},{"IntersectionId":"003D0CFB","Latitude":38.261774,"Longitude":140.878811,"Radius":26.0,"GenerationNumber":1,"Name":"愛宕上杉中央通交差点","Kana":"あたごかみすぎちゅうおうどおりこうさてん","URL":"https://www.j-signal.jp/PicsApi/data/map/04/003D0CFB.html","StartDate":"20200424","EndDate":"20991231","DemoFlg":0,"PedestrianSignals":[{"Name":"","Kana":""},{"Name":"中央通り","Kana":"ちゅうおうどおり"},{"Name":"","Kana":""},{"Name":"","Kana":""},{"Name":"","Kana":""},{"Name":"","Kana":""}]},{"IntersectionId":"00A7DCAD","Latitude":35.858863,"Longitude":139.647063,"Radius":26.0,"GenerationNumber":1,"Name":"県庁第二庁舎入口交差点","Kana":"けんちょうだいにちょうしゃいりぐちこうさてん","URL":"https://www.j-signal.jp/PicsApi/data/map/11/00A7DCAD.html","StartDate":"20201130","EndDate":"20991231","DemoFlg":0,"PedestrianSignals":[{"Name":"南北方向","Kana":"なんぼくほうこう"},{"Name":"東西方向","Kana":"とうざいほうこう"},{"Name":"","Kana":""},{"Name":"","Kana":""},{"Name":"","Kana":""},{"Name":"","Kana":""}]},{"IntersectionId":"FF0000DF","Latitude":36.054970,"Longitude":139.652363,"Radius":1.0,"GenerationNumber":2,"Name":"試験ツール確認３","Kana":"しけんつーるかくにんさん","URL":"https://www.j-signal.jp/PicsApi/data/map/FF/FF0000DF.html","StartDate":"20501001","EndDate":"21001231","DemoFlg":1,"PedestrianSignals":[{"Name":"中部支店","Kana":"ちゅうぶしてん"},{"Name":"九州支店","Kana":"きゅうしゅうしてん"},{"Name":"上尾工場","Kana":"あげおこうじょう"},{"Name":"鉄道","Kana":"てつどう"},{"Name":"駅務","Kana":"えきむ"},{"Name":"道路交通","Kana":"どうろこうつう"}]},{"IntersectionId":"FF0000FF","Latitude":36.055525,"Longitude":139.650988,"Radius":20.0,"GenerationNumber":1,"Name":"久喜事業所西側交差点","Kana":"くきじぎょうしょにしがわこうさてん","URL":"https://www.j-signal.jp/PicsApi/data/map/FF/FF0000FF.html","StartDate":"20200301","EndDate":"20991231","DemoFlg":0,"PedestrianSignals":[{"Name":"ANSIN館正門方向","Kana":"あんしんかんせいもんほうこう"},{"Name":"Ｎ棟場外方向","Kana":"えぬとうじょうがいほうこう"},{"Name":"","Kana":""},{"Name":"","Kana":""},{"Name":"","Kana":""},{"Name":"","Kana":""}]},{"IntersectionId":"02626079","Latitude":33.609137,"Longitude":130.418588,"Radius":23.0,"GenerationNumber":1,"Name":"九大東門前交差点","Kana":"きゅうだいひがしもんまえこうさてん","URL":"https://www.j-signal.jp/PicsApi/data/map/40/02626079.html","StartDate":"20210312","EndDate":"20991231","DemoFlg":0,"PedestrianSignals":[{"Name":"県庁馬出小学校横断方向","Kana":"けんちょうまいだししょうがっこうおうだんほうこう"},{"Name":"吉塚駅九大病院方向","Kana":"よしづかえききゅうだいびょういんほうこう"},{"Name":"","Kana":""},{"Name":"","Kana":""},{"Name":"","Kana":""},{"Name":"","Kana":""}]},{"IntersectionId":"02626269","Latitude":33.606563,"Longitude":130.422555,"Radius":33.0,"GenerationNumber":1,"Name":"吉塚駅前交差点","Kana":"よしづかえきまえこうさてん","URL":"https://www.j-signal.jp/PicsApi/data/map/40/02626269.html","StartDate":"20210312","EndDate":"20991231","DemoFlg":0,"PedestrianSignals":[{"Name":"歩車分離式全方向","Kana":"ほしゃぶんりしきぜんほうこう"},{"Name":"","Kana":""},{"Name":"","Kana":""},{"Name":"","Kana":""},{"Name":"","Kana":""},{"Name":"","Kana":""}]},{"IntersectionId":"02626931","Latitude":33.607632,"Longitude":130.420611,"Radius":31.0,"GenerationNumber":1,"Name":"県庁北口交差点","Kana":"けんちょうきたぐちこうさてん","URL":"https://www.j-signal.jp/PicsApi/data/map/40/02626931.html","StartDate":"20210312","EndDate":"20991231","DemoFlg":0,"PedestrianSignals":[{"Name":"吉塚駅九大病院方向","Kana":"よしづかえききゅうだいびょういんほうこう"},{"Name":"県庁税務署横断方向","Kana":"けんちょうぜいむしょおうだんほうこう"},{"Name":"","Kana":""},{"Name":"","Kana":""},{"Name":"","Kana":""},{"Name":"","Kana":""}]},{"IntersectionId":"02626AE9","Latitude":33.608843,"Longitude":130.419141,"Radius":36.0,"GenerationNumber":1,"Name":"県庁北交差点","Kana":"けんちょうきたこうさてん","URL":"https://www.j-signal.jp/PicsApi/data/map/40/02626AE9.html","StartDate":"20210312","EndDate":"20991231","DemoFlg":0,"PedestrianSignals":[{"Name":"県庁馬出小学校横断方向","Kana":"けんちょうまいだししょうがっこうおうだんほうこう"},{"Name":"吉塚駅九大病院方向","Kana":"よしづかえききゅうだいびょういんほうこう"},{"Name":"","Kana":""},{"Name":"","Kana":""},{"Name":"","Kana":""},{"Name":"","Kana":""}]},{"IntersectionId":"003D18ED","Latitude":38.258445,"Longitude":140.902019,"Radius":26.0,"GenerationNumber":1,"Name":"総合運動場前交差点","Kana":"そうごううんどうじょうまえこうさてん","URL":"https://www.j-signal.jp/PicsApi/data/map/04/003D18ED.html","StartDate":"20210325","EndDate":"20991231","DemoFlg":0,"PedestrianSignals":[{"Name":"南北","Kana":"なんぼく"},{"Name":"総合グランド前東西","Kana":"そうごうぐらんどまえとうざい"},{"Name":"","Kana":""},{"Name":"","Kana":""},{"Name":"","Kana":""},{"Name":"","Kana":""}]},{"IntersectionId":"003D196E","Latitude":38.257946,"Longitude":140.901547,"Radius":31.0,"GenerationNumber":1,"Name":"総合グランド交番前交差点","Kana":"そうごうぐらんどこうばんまえこうさてん","URL":"https://www.j-signal.jp/PicsApi/data/map/04/003D196E.html","StartDate":"20210325","EndDate":"20991231","DemoFlg":0,"PedestrianSignals":[{"Name":"南北","Kana":"なんぼく"},{"Name":"","Kana":""},{"Name":"","Kana":""},{"Name":"交番前東西","Kana":"こうばんまえとうざい"},{"Name":"","Kana":""},{"Name":"","Kana":""}]},{"IntersectionId":"016E3601","Latitude":34.732962,"Longitude":136.514753,"Radius":22.0,"GenerationNumber":1,"Name":"桜橋二丁目西交差点","Kana":"さくらばしにちょうめにしこうさてん","URL":"https://www.j-signal.jp/PicsApi/data/map/24/016E3601.html","StartDate":"20210319","EndDate":"20991231","DemoFlg":0,"PedestrianSignals":[{"Name":"すべての歩行者用信号","Kana":"すべてのほこうしゃようしんごう"},{"Name":"","Kana":""},{"Name":"","Kana":""},{"Name":"","Kana":""},{"Name":"","Kana":""},{"Name":"","Kana":""}]},{"IntersectionId":"016E3602","Latitude":34.666330,"Longitude":136.505965,"Radius":12.0,"GenerationNumber":1,"Name":"警察学校東交差点","Kana":"けいさつがっこうひがしこうさてん","URL":"https://www.j-signal.jp/PicsApi/data/map/24/016E3602.html","StartDate":"20210319","EndDate":"20991231","DemoFlg":0,"PedestrianSignals":[{"Name":"南北方向","Kana":"なんぼくほうこう"},{"Name":"","Kana":""},{"Name":"","Kana":""},{"Name":"","Kana":""},{"Name":"","Kana":""},{"Name":"","Kana":""}]},{"IntersectionId":"003D0CEB","Latitude":38.262401,"Longitude":140.871409,"Radius":30.0,"GenerationNumber":1,"Name":"東一番丁・広瀬通交差点","Kana":"ひがしいちばんちょうひろせどおりこうさてん ","URL":"https://www.j-signal.jp/PicsApi/data/map/04/003D0CEB.html","StartDate":"20210331","EndDate":"20991231","DemoFlg":0,"PedestrianSignals":[{"Name":"","Kana":""},{"Name":"東一番丁通り","Kana":"ひがしいちばんちょうどおり"},{"Name":"","Kana":""},{"Name":"","Kana":""},{"Name":"","Kana":""},{"Name":"","Kana":""}]},{"IntersectionId":"003D0CF0","Latitude":38.267085,"Longitude":140.875680,"Radius":40.0,"GenerationNumber":1,"Name":"錦町公園前交差点","Kana":"にしきちょうこうえんまえこうさてん ","URL":"https://www.j-signal.jp/PicsApi/data/map/04/003D0CF0.html","StartDate":"20210331","EndDate":"20991231","DemoFlg":0,"PedestrianSignals":[{"Name":"愛宕上杉通り","Kana":"あたごかみすぎどおり"},{"Name":"定禅寺通り","Kana":"じょうぜんじどおり"},{"Name":"","Kana":""},{"Name":"","Kana":""},{"Name":"","Kana":""},{"Name":"","Kana":""}]},{"IntersectionId":"003D0CF2","Latitude":38.262788,"Longitude":140.873518,"Radius":47.0,"GenerationNumber":1,"Name":"東二番丁・広瀬通交差点","Kana":"ひがしにばんちょうひろせどおりこうさてん ","URL":"https://www.j-signal.jp/PicsApi/data/map/04/003D0CF2.html","StartDate":"20210331","EndDate":"20991231","DemoFlg":0,"PedestrianSignals":[{"Name":"東二番丁通り","Kana":"ひがしにばんちょうどおり"},{"Name":"広瀬通り","Kana":"ひろせどおり"},{"Name":"","Kana":""},{"Name":"","Kana":""},{"Name":"","Kana":""},{"Name":"","Kana":""}]},{"IntersectionId":"003D0D01","Latitude":38.261765,"Longitude":140.867936,"Radius":35.0,"GenerationNumber":1,"Name":"広瀬・晩翠通交差点","Kana":"ひろせばんすいどおりこうさてん ","URL":"https://www.j-signal.jp/PicsApi/data/map/04/003D0D01.html","StartDate":"20210331","EndDate":"20991231","DemoFlg":0,"PedestrianSignals":[{"Name":"広瀬通り","Kana":"ひろせどおり"},{"Name":"晩翠通り","Kana":"ばんすいどおり"},{"Name":"","Kana":""},{"Name":"","Kana":""},{"Name":"","Kana":""},{"Name":"","Kana":""}]},{"IntersectionId":"003D0D05","Latitude":38.265684,"Longitude":140.868947,"Radius":36.0,"GenerationNumber":1,"Name":"定禅寺・国分町通交差点","Kana":"じょうぜんじこくぶんちょうどおりこうさてん","URL":"https://www.j-signal.jp/PicsApi/data/map/04/003D0D05.html","StartDate":"20210331","EndDate":"20991231","DemoFlg":0,"PedestrianSignals":[{"Name":"全ての方向","Kana":"すべてのほうこう"},{"Name":"全ての方向","Kana":"すべてのほうこう"},{"Name":"","Kana":""},{"Name":"","Kana":""},{"Name":"","Kana":""},{"Name":"","Kana":""}]},{"IntersectionId":"003D0D06","Latitude":38.262159,"Longitude":140.870099,"Radius":32.0,"GenerationNumber":1,"Name":"広瀬・国分町通交差点","Kana":"ひろせこくぶんちょうどおりこうさてん ","URL":"https://www.j-signal.jp/PicsApi/data/map/04/003D0D06.html","StartDate":"20210331","EndDate":"20991231","DemoFlg":0,"PedestrianSignals":[{"Name":"広瀬通り","Kana":"ひろせどおり"},{"Name":"国分町通り","Kana":"こくぶんちょうどおり"},{"Name":"","Kana":""},{"Name":"","Kana":""},{"Name":"","Kana":""},{"Name":"","Kana":""}]},{"IntersectionId":"003D0D08","Latitude":38.265281,"Longitude":140.866800,"Radius":36.0,"GenerationNumber":1,"Name":"定禅寺・晩翠通交差点","Kana":"じょうぜんじばんすいどおりこうさてん ","URL":"https://www.j-signal.jp/PicsApi/data/map/04/003D0D08.html","StartDate":"20210331","EndDate":"20991231","DemoFlg":0,"PedestrianSignals":[{"Name":"全ての方向","Kana":"すべてのほうこう"},{"Name":"全ての方向","Kana":"すべてのほうこう"},{"Name":"","Kana":""},{"Name":"","Kana":""},{"Name":"","Kana":""},{"Name":"","Kana":""}]},{"IntersectionId":"003D0D14","Latitude":38.264681,"Longitude":140.863498,"Radius":40.0,"GenerationNumber":1,"Name":"市民会館前交差点","Kana":"しみんかいかんまえこうさてん","URL":"https://www.j-signal.jp/PicsApi/data/map/04/003D0D14.html","StartDate":"20210331","EndDate":"20991231","DemoFlg":0,"PedestrianSignals":[{"Name":"西公園通り","Kana":"にしこうえんどおり"},{"Name":"定禅寺通り 北側","Kana":"じょうぜんじどおりきたがわ"},{"Name":"定禅寺通り 南側","Kana":"じょうぜんじどおりみなみがわ"},{"Name":"","Kana":""},{"Name":"","Kana":""},{"Name":"","Kana":""}]},{"IntersectionId":"003D0D35","Latitude":38.267814,"Longitude":140.879289,"Radius":41.0,"GenerationNumber":1,"Name":"定禅寺・錦町交差点","Kana":"じょうぜんじにしきちょうこうさてん ","URL":"https://www.j-signal.jp/PicsApi/data/map/04/003D0D35.html","StartDate":"20210331","EndDate":"20991231","DemoFlg":0,"PedestrianSignals":[{"Name":"定禅寺通り 北側","Kana":"じょうぜんじどおりきたがわ"},{"Name":"駅前光禅寺通り 東側","Kana":"えきまえこうぜんじどおりひがしがわ"},{"Name":"定禅寺通り 南側","Kana":"じょうぜんじどおりみなみがわ"},{"Name":"駅前光禅寺通り 西側","Kana":"えきまえこうぜんじどおりにしがわ"},{"Name":"","Kana":""},{"Name":"","Kana":""}]},{"IntersectionId":"003D10D3","Latitude":38.228664,"Longitude":140.884934,"Radius":25.0,"GenerationNumber":1,"Name":"たいはっくる前交差点","Kana":"たいはっくるまえこうさてん","URL":"https://www.j-signal.jp/PicsApi/data/map/04/003D10D3.html","StartDate":"20210331","EndDate":"20991231","DemoFlg":0,"PedestrianSignals":[{"Name":"南北","Kana":"なんぼく"},{"Name":"東西","Kana":"とうざい"},{"Name":"","Kana":""},{"Name":"","Kana":""},{"Name":"","Kana":""},{"Name":"","Kana":""}]},{"IntersectionId":"003D111A","Latitude":38.226413,"Longitude":140.884916,"Radius":40.0,"GenerationNumber":1,"Name":"長町駅前交差点","Kana":"ながまちえきまえこうさてん ","URL":"https://www.j-signal.jp/PicsApi/data/map/04/003D111A.html","StartDate":"20210331","EndDate":"20991231","DemoFlg":0,"PedestrianSignals":[{"Name":"南北","Kana":"なんぼく"},{"Name":"東西","Kana":"とうざい"},{"Name":"","Kana":""},{"Name":"","Kana":""},{"Name":"","Kana":""},{"Name":"","Kana":""}]},{"IntersectionId":"003D1155","Latitude":38.239642,"Longitude":140.847149,"Radius":24.0,"GenerationNumber":1,"Name":"八木山小学校前交差点","Kana":"やぎやましょうがっこうまえこうさてん ","URL":"https://www.j-signal.jp/PicsApi/data/map/04/003D1155.html","StartDate":"20210331","EndDate":"20991231","DemoFlg":0,"PedestrianSignals":[{"Name":"東西","Kana":"とうざい"},{"Name":"南北","Kana":"なんぼく"},{"Name":"","Kana":""},{"Name":"","Kana":""},{"Name":"","Kana":""},{"Name":"","Kana":""}]},{"IntersectionId":"003D116F","Latitude":38.228238,"Longitude":140.877243,"Radius":31.0,"GenerationNumber":1,"Name":"南郵便局前交差点","Kana":"みなみゆうびんきょくまえこうさてん ","URL":"https://www.j-signal.jp/PicsApi/data/map/04/003D116F.html","StartDate":"20210331","EndDate":"20991231","DemoFlg":0,"PedestrianSignals":[{"Name":"東西","Kana":"とうざい"},{"Name":"南北","Kana":"なんぼく"},{"Name":"","Kana":""},{"Name":"","Kana":""},{"Name":"","Kana":""},{"Name":"","Kana":""}]},{"IntersectionId":"003D11B9","Latitude":38.225629,"Longitude":140.881692,"Radius":28.0,"GenerationNumber":1,"Name":"長町五丁目交差点","Kana":"ながまちごちょうめこうさてん ","URL":"https://www.j-signal.jp/PicsApi/data/map/04/003D11B9.html","StartDate":"20210331","EndDate":"20991231","DemoFlg":0,"PedestrianSignals":[{"Name":"東西","Kana":"とうざい"},{"Name":"南北","Kana":"なんぼく"},{"Name":"","Kana":""},{"Name":"","Kana":""},{"Name":"","Kana":""},{"Name":"","Kana":""}]},{"IntersectionId":"003D11BA","Latitude":38.224900,"Longitude":140.878296,"Radius":38.0,"GenerationNumber":1,"Name":"太白区役所前交差点","Kana":"たいはくくやくしょまえこうさてん ","URL":"https://www.j-signal.jp/PicsApi/data/map/04/003D11BA.html","StartDate":"20210331","EndDate":"20991231","DemoFlg":0,"PedestrianSignals":[{"Name":"東西","Kana":"とうざい"},{"Name":"南北","Kana":"なんぼく"},{"Name":"","Kana":""},{"Name":"","Kana":""},{"Name":"","Kana":""},{"Name":"","Kana":""}]},{"IntersectionId":"003D11C5","Latitude":38.224215,"Longitude":140.874455,"Radius":30.0,"GenerationNumber":1,"Name":"地下鉄長町南駅西側交差点","Kana":"ちかてつながまちみなみえきにしがわこうさてん ","URL":"https://www.j-signal.jp/PicsApi/data/map/04/003D11C5.html","StartDate":"20210331","EndDate":"20991231","DemoFlg":0,"PedestrianSignals":[{"Name":"東西","Kana":"とうざい"},{"Name":"南北","Kana":"なんぼく"},{"Name":"","Kana":""},{"Name":"","Kana":""},{"Name":"","Kana":""},{"Name":"","Kana":""}]},{"IntersectionId":"003D1203","Latitude":38.226905,"Longitude":140.877755,"Radius":35.0,"GenerationNumber":1,"Name":"長町七丁目交差点","Kana":"ながまちななちょうめこうさてん ","URL":"https://www.j-signal.jp/PicsApi/data/map/04/003D1203.html","StartDate":"20210331","EndDate":"20991231","DemoFlg":0,"PedestrianSignals":[{"Name":"南北","Kana":"なんぼく"},{"Name":"東西","Kana":"とうざい"},{"Name":"","Kana":""},{"Name":"","Kana":""},{"Name":"","Kana":""},{"Name":"","Kana":""}]},{"IntersectionId":"003D1239","Latitude":38.226159,"Longitude":140.887414,"Radius":43.0,"GenerationNumber":1,"Name":"あすと長町一丁目南交差点","Kana":"あすとながまちいっちょうめみなみこうさてん","URL":"https://www.j-signal.jp/PicsApi/data/map/04/003D1239.html","StartDate":"20210331","EndDate":"20991231","DemoFlg":0,"PedestrianSignals":[{"Name":"南北","Kana":"なんぼく"},{"Name":"東西","Kana":"とうざい"},{"Name":"","Kana":""},{"Name":"","Kana":""},{"Name":"","Kana":""},{"Name":"","Kana":""}]},{"IntersectionId":"003D123A","Latitude":38.228166,"Longitude":140.888437,"Radius":39.0,"GenerationNumber":1,"Name":"あすと長町一丁目北交差点","Kana":"あすとながまちいっちょうめきたこうさてん","URL":"https://www.j-signal.jp/PicsApi/data/map/04/003D123A.html","StartDate":"20210331","EndDate":"20991231","DemoFlg":0,"PedestrianSignals":[{"Name":"南北","Kana":"なんぼく"},{"Name":"東西","Kana":"とうざい"},{"Name":"","Kana":""},{"Name":"","Kana":""},{"Name":"","Kana":""},{"Name":"","Kana":""}]},{"IntersectionId":"003D123E","Latitude":38.227208,"Longitude":140.887765,"Radius":32.0,"GenerationNumber":1,"Name":"長町駅入口交差点","Kana":"ながまちえきいりぐちこうさてん","URL":"https://www.j-signal.jp/PicsApi/data/map/04/003D123E.html","StartDate":"20210331","EndDate":"20991231","DemoFlg":0,"PedestrianSignals":[{"Name":"南北","Kana":"なんぼく"},{"Name":"東西","Kana":"とうざい"},{"Name":"","Kana":""},{"Name":"","Kana":""},{"Name":"","Kana":""},{"Name":"","Kana":""}]},{"IntersectionId":"003D124B","Latitude":38.237685,"Longitude":140.849518,"Radius":29.0,"GenerationNumber":1,"Name":"八木山小学校南東交差点","Kana":"やぎやましょうがっこうなんとうこうさてん","URL":"https://www.j-signal.jp/PicsApi/data/map/04/003D124B.html","StartDate":"20210331","EndDate":"20991231","DemoFlg":0,"PedestrianSignals":[{"Name":"全ての方向","Kana":"すべてのほうこう"},{"Name":"全ての方向","Kana":"すべてのほうこう"},{"Name":"","Kana":""},{"Name":"","Kana":""},{"Name":"","Kana":""},{"Name":"","Kana":""}]},{"IntersectionId":"003D126F","Latitude":38.242679,"Longitude":140.843060,"Radius":31.0,"GenerationNumber":1,"Name":"八木山動物公園駅前交差点","Kana":"やぎやまどうぶつこうえんえきまえこうさてん","URL":"https://www.j-signal.jp/PicsApi/data/map/04/003D126F.html","StartDate":"20210331","EndDate":"20991231","DemoFlg":0,"PedestrianSignals":[{"Name":"全ての方向","Kana":"すべてのほうこう"},{"Name":"全ての方向","Kana":"すべてのほうこう"},{"Name":"","Kana":""},{"Name":"","Kana":""},{"Name":"","Kana":""},{"Name":"","Kana":""}]},{"IntersectionId":"003D14B9","Latitude":38.272211,"Longitude":140.869042,"Radius":32.0,"GenerationNumber":1,"Name":"北四番丁・勾当台通交差点","Kana":"きたよばんちょうこうとうだいどおりこうさてん","URL":"https://www.j-signal.jp/PicsApi/data/map/04/003D14B9.html","StartDate":"20210331","EndDate":"20991231","DemoFlg":0,"PedestrianSignals":[{"Name":"勾当台通り","Kana":"こうとうだいどおり"},{"Name":"北四番丁通り","Kana":"きたよばんちょうどおり"},{"Name":"","Kana":""},{"Name":"","Kana":""},{"Name":"","Kana":""},{"Name":"","Kana":""}]},{"IntersectionId":"003D14BC","Latitude":38.270941,"Longitude":140.861728,"Radius":31.0,"GenerationNumber":1,"Name":"東北大学病院正門前交差点","Kana":"とうほくだいがくびょういんせいもんまえこうさてん ","URL":"https://www.j-signal.jp/PicsApi/data/map/04/003D14BC.html","StartDate":"20210331","EndDate":"20991231","DemoFlg":0,"PedestrianSignals":[{"Name":"北四番丁通り","Kana":"きたよばんちょうどおり"},{"Name":"西公園通り","Kana":"にしこうえんどおり"},{"Name":"","Kana":""},{"Name":"","Kana":""},{"Name":"","Kana":""},{"Name":"","Kana":""}]},{"IntersectionId":"003D14C2","Latitude":38.271483,"Longitude":140.864879,"Radius":30.0,"GenerationNumber":1,"Name":"北四番丁・晩翠通交差点","Kana":"きたよばんちょうばんすいどおりこうさてん","URL":"https://www.j-signal.jp/PicsApi/data/map/04/003D14C2.html","StartDate":"20210331","EndDate":"20991231","DemoFlg":0,"PedestrianSignals":[{"Name":"北四番丁通り","Kana":"きたよばんちょうどおり"},{"Name":"晩翠通り","Kana":"ばんすいどおり"},{"Name":"","Kana":""},{"Name":"","Kana":""},{"Name":"","Kana":""},{"Name":"","Kana":""}]},{"IntersectionId":"003D14C8","Latitude":38.271144,"Longitude":140.862814,"Radius":31.0,"GenerationNumber":1,"Name":"北四番丁・大衡仙台線交差点","Kana":"きたよばんちょうおおひらせんだいせんこうさてん ","URL":"https://www.j-signal.jp/PicsApi/data/map/04/003D14C8.html","StartDate":"20210331","EndDate":"20991231","DemoFlg":0,"PedestrianSignals":[{"Name":"北四番丁通り","Kana":"きたよばんちょうどおり"},{"Name":"大衡仙台線","Kana":"おおひらせんだいせん"},{"Name":"","Kana":""},{"Name":"","Kana":""},{"Name":"","Kana":""},{"Name":"","Kana":""}]},{"IntersectionId":"003D14C9","Latitude":38.271839,"Longitude":140.866876,"Radius":25.0,"GenerationNumber":1,"Name":"北四番丁・国分町通交差点","Kana":"きたよばんちょうこくぶんちょうどおりこうさてん","URL":"https://www.j-signal.jp/PicsApi/data/map/04/003D14C9.html","StartDate":"20210331","EndDate":"20991231","DemoFlg":0,"PedestrianSignals":[{"Name":"北四番丁通り","Kana":"きたよばんちょうどおり"},{"Name":"国分町通り","Kana":"こくぶんちょうどおり"},{"Name":"","Kana":""},{"Name":"","Kana":""},{"Name":"","Kana":""},{"Name":"","Kana":""}]},{"IntersectionId":"003D14DA","Latitude":38.272719,"Longitude":140.872033,"Radius":27.0,"GenerationNumber":1,"Name":"北四番丁・外記丁交差点","Kana":"きたよばんちょうげきちょうこうさてん ","URL":"https://www.j-signal.jp/PicsApi/data/map/04/003D14DA.html","StartDate":"20210331","EndDate":"20991231","DemoFlg":0,"PedestrianSignals":[{"Name":"北四番丁通り","Kana":"きたよばんちょうどおり"},{"Name":"外記丁通り","Kana":"げきちょうどおり"},{"Name":"","Kana":""},{"Name":"","Kana":""},{"Name":"","Kana":""},{"Name":"","Kana":""}]},{"IntersectionId":"003D14F8","Latitude":38.270620,"Longitude":140.883924,"Radius":22.0,"GenerationNumber":1,"Name":"宮町小田原北一交差点","Kana":"みやまちおだわらきたいちこうさてん ","URL":"https://www.j-signal.jp/PicsApi/data/map/04/003D14F8.html","StartDate":"20210331","EndDate":"20991231","DemoFlg":0,"PedestrianSignals":[{"Name":"宮町通り","Kana":"みやまちどおり"},{"Name":"東西","Kana":"とうざい"},{"Name":"","Kana":""},{"Name":"","Kana":""},{"Name":"","Kana":""},{"Name":"","Kana":""}]},{"IntersectionId":"003D150D","Latitude":38.272450,"Longitude":140.870526,"Radius":24.0,"GenerationNumber":1,"Name":"北四番丁・堤通交差点","Kana":"きたよばんちょうつつみどおりこうさてん ","URL":"https://www.j-signal.jp/PicsApi/data/map/04/003D150D.html","StartDate":"20210331","EndDate":"20991231","DemoFlg":0,"PedestrianSignals":[{"Name":"北四番丁通り","Kana":"きたよばんちょうどおり"},{"Name":"堤通り","Kana":"つつみどおり"},{"Name":"","Kana":""},{"Name":"","Kana":""},{"Name":"","Kana":""},{"Name":"","Kana":""}]},{"IntersectionId":"003D1593","Latitude":38.274213,"Longitude":140.884358,"Radius":30.0,"GenerationNumber":1,"Name":"北四番丁・宮町通交差点","Kana":"きたよばんちょうみやまちどおりこうさてん","URL":"https://www.j-signal.jp/PicsApi/data/map/04/003D1593.html","StartDate":"20210331","EndDate":"20991231","DemoFlg":0,"PedestrianSignals":[{"Name":"北四番丁通り","Kana":"きたよばんちょうどおり"},{"Name":"宮町通り","Kana":"みやまちどおり"},{"Name":"","Kana":""},{"Name":"","Kana":""},{"Name":"","Kana":""},{"Name":"","Kana":""}]},{"IntersectionId":"003D198F","Latitude":38.258734,"Longitude":140.894848,"Radius":31.0,"GenerationNumber":1,"Name":"仙台サンプラザ前交差点","Kana":"せんだいさんぷらざまえこうさてん","URL":"https://www.j-signal.jp/PicsApi/data/map/04/003D198F.html","StartDate":"20210331","EndDate":"20991231","DemoFlg":0,"PedestrianSignals":[{"Name":"宮城野通り","Kana":"みやぎのどおり"},{"Name":"南北","Kana":"なんぼく"},{"Name":"","Kana":""},{"Name":"","Kana":""},{"Name":"","Kana":""},{"Name":"","Kana":""}]},{"IntersectionId":"003D4403","Latitude":38.572181,"Longitude":140.966086,"Radius":34.0,"GenerationNumber":1,"Name":"古川駅前大通二丁目交差点","Kana":"ふるかわえきまえおおどおりにちょうめこうさてん ","URL":"https://www.j-signal.jp/PicsApi/data/map/04/003D4403.html","StartDate":"20210331","EndDate":"20991231","DemoFlg":0,"PedestrianSignals":[{"Name":"南北","Kana":"なんぼく"},{"Name":"東西","Kana":"とうざい"},{"Name":"","Kana":""},{"Name":"","Kana":""},{"Name":"","Kana":""},{"Name":"","Kana":""}]},{"IntersectionId":"003D4404","Latitude":38.572525,"Longitude":140.964390,"Radius":26.0,"GenerationNumber":1,"Name":"新幹線古川駅西側交差点","Kana":"しんかんせんふるかわえきにしがわこうさてん ","URL":"https://www.j-signal.jp/PicsApi/data/map/04/003D4404.html","StartDate":"20210331","EndDate":"20991231","DemoFlg":0,"PedestrianSignals":[{"Name":"南北","Kana":"なんぼく"},{"Name":"東西","Kana":"とうざい"},{"Name":"","Kana":""},{"Name":"","Kana":""},{"Name":"","Kana":""},{"Name":"","Kana":""}]},{"IntersectionId":"003D4433","Latitude":38.566998,"Longitude":140.976709,"Radius":27.0,"GenerationNumber":1,"Name":"大崎合同庁舎北東交差点","Kana":"おおさきごうどうちょうしゃほくとうこうさてん ","URL":"https://www.j-signal.jp/PicsApi/data/map/04/003D4433.html","StartDate":"20210331","EndDate":"20991231","DemoFlg":0,"PedestrianSignals":[{"Name":"南北","Kana":"なんぼく"},{"Name":"東西","Kana":"とうざい"},{"Name":"","Kana":""},{"Name":"","Kana":""},{"Name":"","Kana":""},{"Name":"","Kana":""}]},{"IntersectionId":"003D443A","Latitude":38.566769,"Longitude":140.944970,"Radius":27.0,"GenerationNumber":1,"Name":"古川第五小学校入口交差点","Kana":"ふるかわだいごしょうがっこういりぐちこうさてん ","URL":"https://www.j-signal.jp/PicsApi/data/map/04/003D443A.html","StartDate":"20210331","EndDate":"20991231","DemoFlg":0,"PedestrianSignals":[{"Name":"全ての方向","Kana":"すべてのほうこう"},{"Name":"全ての方向","Kana":"すべてのほうこう"},{"Name":"","Kana":""},{"Name":"","Kana":""},{"Name":"","Kana":""},{"Name":"","Kana":""}]},{"IntersectionId":"003D443C","Latitude":38.566600,"Longitude":140.940285,"Radius":29.0,"GenerationNumber":1,"Name":"穂波の郷西交差点","Kana":"ほなみのさとにしこうさてん","URL":"https://www.j-signal.jp/PicsApi/data/map/04/003D443C.html","StartDate":"20210331","EndDate":"20991231","DemoFlg":0,"PedestrianSignals":[{"Name":"東西","Kana":"とうざい"},{"Name":"南北","Kana":"なんぼく"},{"Name":"","Kana":""},{"Name":"","Kana":""},{"Name":"","Kana":""},{"Name":"","Kana":""}]},{"IntersectionId":"003D444D","Latitude":38.566559,"Longitude":140.942912,"Radius":30.0,"GenerationNumber":1,"Name":"穂波の郷中央交差点","Kana":"ほなみのさとちゅうおうこうさてん","URL":"https://www.j-signal.jp/PicsApi/data/map/04/003D444D.html","StartDate":"20210331","EndDate":"20991231","DemoFlg":0,"PedestrianSignals":[{"Name":"東西","Kana":"とうざい"},{"Name":"南北","Kana":"なんぼく"},{"Name":"","Kana":""},{"Name":"","Kana":""},{"Name":"","Kana":""},{"Name":"","Kana":""}]},{"IntersectionId":"003D1139","Latitude":38.241453,"Longitude":140.841349,"Radius":42.0,"GenerationNumber":1,"Name":"八木山本町二丁目交差点","Kana":"やぎやまほんちょうにちょうめこうさてん","URL":"https://www.j-signal.jp/PicsApi/data/map/04/003D1139.html","StartDate":"20210331","EndDate":"20991231","DemoFlg":0,"PedestrianSignals":[{"Name":"南北","Kana":"なんぼく"},{"Name":"東西","Kana":"とうざい"},{"Name":"","Kana":""},{"Name":"","Kana":""},{"Name":"","Kana":""},{"Name":"","Kana":""}]},{"IntersectionId":"003D1148","Latitude":38.235047,"Longitude":140.836975,"Radius":23.0,"GenerationNumber":1,"Name":"八木山南一丁目交差点","Kana":"やぎやまみなみいっちょうめこうさてん","URL":"https://www.j-signal.jp/PicsApi/data/map/04/003D1148.html","StartDate":"20210331","EndDate":"20991231","DemoFlg":0,"PedestrianSignals":[{"Name":"全ての方向","Kana":"すべてのほうこう"},{"Name":"全ての方向","Kana":"すべてのほうこう"},{"Name":"","Kana":""},{"Name":"","Kana":""},{"Name":"","Kana":""},{"Name":"","Kana":""}]},{"IntersectionId":"014FB198","Latitude":34.970579,"Longitude":138.384677,"Radius":33.0,"GenerationNumber":1,"Name":"常磐町2丁目交差点","Kana":"ときわちょうにちょうめこうさてん","URL":"https://www.j-signal.jp/PicsApi/data/map/22/014FB198.html","StartDate":"20210331","EndDate":"20991231","DemoFlg":0,"PedestrianSignals":[{"Name":"郵便局・あざれあ間南北方向","Kana":"ゆうびんきょく・あざれあかんなんぼくほうこう"},{"Name":"昭和町・黒金町間東西方向","Kana":"しょうわちょう・くろがねちょうかんとうざいほうこう"},{"Name":"","Kana":""},{"Name":"","Kana":""},{"Name":"","Kana":""},{"Name":"","Kana":""}]},{"IntersectionId":"014FB199","Latitude":34.973669,"Longitude":138.384756,"Radius":26.0,"GenerationNumber":1,"Name":"呉服町2丁目交差点","Kana":"ごふくちょうにちょうめこうさてん","URL":"https://www.j-signal.jp/PicsApi/data/map/22/014FB199.html","StartDate":"20210331","EndDate":"20991231","DemoFlg":0,"PedestrianSignals":[{"Name":"","Kana":""},{"Name":"","Kana":""},{"Name":"歩車分離式信号機すべての歩行者用信号","Kana":"ほしゃぶんりしきしんごうきすべてのほこうしゃようしんごう"},{"Name":"","Kana":""},{"Name":"","Kana":""},{"Name":"","Kana":""}]},{"IntersectionId":"014FB19A","Latitude":34.977417,"Longitude":138.379503,"Radius":17.0,"GenerationNumber":1,"Name":"中町交差点","Kana":"なかちょうこうさてん","URL":"https://www.j-signal.jp/PicsApi/data/map/22/014FB19A.html","StartDate":"20210331","EndDate":"20991231","DemoFlg":0,"PedestrianSignals":[{"Name":"県庁・浅間神社間東西方向","Kana":"けんちょう・せんげんじんじゃかんとうざいほうこう"},{"Name":"","Kana":""},{"Name":"","Kana":""},{"Name":"","Kana":""},{"Name":"","Kana":""},{"Name":"","Kana":""}]},{"IntersectionId":"014FB19B","Latitude":34.980645,"Longitude":138.388265,"Radius":29.0,"GenerationNumber":1,"Name":"水落交差点","Kana":"みずおちこうさてん","URL":"https://www.j-signal.jp/PicsApi/data/map/22/014FB19B.html","StartDate":"20210331","EndDate":"20991231","DemoFlg":0,"PedestrianSignals":[{"Name":"東西方向","Kana":"とうざいほうこう"},{"Name":"南北方向","Kana":"なんぼくほうこう"},{"Name":"","Kana":""},{"Name":"","Kana":""},{"Name":"","Kana":""},{"Name":"","Kana":""}]},{"IntersectionId":"014FB19C","Latitude":34.975325,"Longitude":138.385944,"Radius":23.0,"GenerationNumber":1,"Name":"新静岡駅前南交差点","Kana":"しんしずおかえきまえみなみこうさてん","URL":"https://www.j-signal.jp/PicsApi/data/map/22/014FB19C.html","StartDate":"20210331","EndDate":"20991231","DemoFlg":0,"PedestrianSignals":[{"Name":"","Kana":""},{"Name":"南北方向","Kana":"なんぼくほうこう"},{"Name":"","Kana":""},{"Name":"","Kana":""},{"Name":"東西方向","Kana":"とうざいほうこう"},{"Name":"","Kana":""}]},{"IntersectionId":"014FB19D","Latitude":34.981111,"Longitude":138.376321,"Radius":23.0,"GenerationNumber":1,"Name":"宮ケ崎町交差点","Kana":"みやがさきちょうこうさてん","URL":"https://www.j-signal.jp/PicsApi/data/map/22/014FB19D.html","StartDate":"20210331","EndDate":"20991231","DemoFlg":0,"PedestrianSignals":[{"Name":"安倍町・西草深町間東西方向","Kana":"あべちょう・にしくさぶかちょうかんとうざいほうこう"},{"Name":"県庁・浅間神社間南北方向","Kana":"けんちょう・せんげんじんじゃかんなんぼくほうこう"},{"Name":"","Kana":""},{"Name":"","Kana":""},{"Name":"","Kana":""},{"Name":"","Kana":""}]},{"IntersectionId":"014FB19E","Latitude":34.976153,"Longitude":138.378744,"Radius":29.0,"GenerationNumber":1,"Name":"呉服町1丁目交差点","Kana":"ごふくちょういっちょうめこうさてん","URL":"https://www.j-signal.jp/PicsApi/data/map/22/014FB19E.html","StartDate":"20210331","EndDate":"20991231","DemoFlg":0,"PedestrianSignals":[{"Name":"南北方向","Kana":"なんぼくほうこう"},{"Name":"東西方向","Kana":"とうざいほうこう"},{"Name":"","Kana":""},{"Name":"","Kana":""},{"Name":"","Kana":""},{"Name":"","Kana":""}]},{"IntersectionId":"014FB19F","Latitude":34.982041,"Longitude":138.375613,"Radius":23.0,"GenerationNumber":1,"Name":"浅間神社前交差点","Kana":"せんげんじんじゃまえこうさてん","URL":"https://www.j-signal.jp/PicsApi/data/map/22/014FB19F.html","StartDate":"20210331","EndDate":"20991231","DemoFlg":0,"PedestrianSignals":[{"Name":"片羽町・西草深町間東西方向","Kana":"かたはちょう・にしくさぶかちょうかんとうざいほうこう"},{"Name":"県庁・浅間神社間南北方向","Kana":"けんちょう・せんげんじんじゃかんなんぼくほうこう"},{"Name":"","Kana":""},{"Name":"","Kana":""},{"Name":"","Kana":""},{"Name":"","Kana":""}]},{"IntersectionId":"014FB1A0","Latitude":34.970888,"Longitude":138.389595,"Radius":25.0,"GenerationNumber":1,"Name":"静岡駅南口交差点","Kana":"しずおかえきみなみぐちこうさてん","URL":"https://www.j-signal.jp/PicsApi/data/map/22/014FB1A0.html","StartDate":"20210331","EndDate":"20991231","DemoFlg":0,"PedestrianSignals":[{"Name":"歩車分離式信号機すべての歩行者用信号","Kana":"ほしゃぶんりしきしんごうきすべてのほこうしゃようしんごう"},{"Name":"歩車分離式信号機すべての歩行者用信号","Kana":"ほしゃぶんりしきしんごうきすべてのほこうしゃようしんごう"},{"Name":"","Kana":""},{"Name":"","Kana":""},{"Name":"","Kana":""},{"Name":"","Kana":""}]},{"IntersectionId":"003D0CF6","Latitude":38.266160,"Longitude":140.871516,"Radius":53.0,"GenerationNumber":1,"Name":"東二番丁・定禅寺通交差点","Kana":"ひがしにばんちょうじょうぜんじどおりこうさてん ","URL":"https://www.j-signal.jp/PicsApi/data/map/04/003D0CF6.html","StartDate":"20210331","EndDate":"20991231","DemoFlg":0,"PedestrianSignals":[{"Name":"定禅寺通り","Kana":"じょうぜんじどおり"},{"Name":"東二番丁通り","Kana":"ひがしにばんちょうどおり"},{"Name":"","Kana":""},{"Name":"","Kana":""},{"Name":"","Kana":""},{"Name":"","Kana":""}]},{"IntersectionId":"003D0D19","Latitude":38.266454,"Longitude":140.872955,"Radius":31.0,"GenerationNumber":1,"Name":"定禅寺・東三番丁交差点","Kana":"じょうぜんじひがしさんばんちょうこうさてん ","URL":"https://www.j-signal.jp/PicsApi/data/map/04/003D0D19.html","StartDate":"20210331","EndDate":"20991231","DemoFlg":0,"PedestrianSignals":[{"Name":"定禅寺通り","Kana":"じょうぜんじどおり"},{"Name":"東三番丁通り","Kana":"ひがしさんばんちょうどおり"},{"Name":"","Kana":""},{"Name":"","Kana":""},{"Name":"","Kana":""},{"Name":"","Kana":""}]},{"IntersectionId":"003D0D25","Latitude":38.264906,"Longitude":140.864792,"Radius":36.0,"GenerationNumber":1,"Name":"定禅寺・木町通交差点","Kana":"じょうぜんじきまちどおりこうさてん ","URL":"https://www.j-signal.jp/PicsApi/data/map/04/003D0D25.html","StartDate":"20210331","EndDate":"20991231","DemoFlg":0,"PedestrianSignals":[{"Name":"定禅寺通り","Kana":"じょうぜんじどおり"},{"Name":"木町通り","Kana":"きまちどおり"},{"Name":"","Kana":""},{"Name":"","Kana":""},{"Name":"","Kana":""},{"Name":"","Kana":""}]},{"IntersectionId":"003D0D26","Latitude":38.265939,"Longitude":140.870287,"Radius":40.0,"GenerationNumber":1,"Name":"定禅寺・東一番丁交差点","Kana":"じょうぜんじひがしいちばんちょうこうさてん ","URL":"https://www.j-signal.jp/PicsApi/data/map/04/003D0D26.html","StartDate":"20210331","EndDate":"20991231","DemoFlg":0,"PedestrianSignals":[{"Name":"全ての方向","Kana":"すべてのほうこう"},{"Name":"全ての方向","Kana":"すべてのほうこう"},{"Name":"","Kana":""},{"Name":"","Kana":""},{"Name":"","Kana":""},{"Name":"","Kana":""}]},{"IntersectionId":"003D24CD","Latitude":38.173069,"Longitude":140.875924,"Radius":34.0,"GenerationNumber":1,"Name":"手倉田大橋南たもと交差点","Kana":"てくらだおおはしみなみたもとこうさてん","URL":"https://www.j-signal.jp/PicsApi/data/map/04/003D24CD.html","StartDate":"20210331","EndDate":"20991231","DemoFlg":0,"PedestrianSignals":[{"Name":"全ての方向","Kana":"すべてのほうこう"},{"Name":"全ての方向","Kana":"すべてのほうこう"},{"Name":"","Kana":""},{"Name":"","Kana":""},{"Name":"","Kana":""},{"Name":"","Kana":""}]},{"IntersectionId":"014FB185","Latitude":34.975904,"Longitude":138.386305,"Radius":22.0,"GenerationNumber":1,"Name":"新静岡駅前北交差点","Kana":"しんしずおかえきまえきたこうさてん","URL":"https://www.j-signal.jp/PicsApi/data/map/22/014FB185.html","StartDate":"20200424","EndDate":"20991231","DemoFlg":0,"PedestrianSignals":[{"Name":"南北方向","Kana":"なんぼくほうこう"},{"Name":"","Kana":""},{"Name":"東西方向","Kana":"とうざいほうこう"},{"Name":"","Kana":""},{"Name":"","Kana":""},{"Name":"","Kana":""}]},{"IntersectionId":"014FB187","Latitude":34.974164,"Longitude":138.386325,"Radius":23.0,"GenerationNumber":1,"Name":"御幸町交差点","Kana":"みゆきちょうこうさてん","URL":"https://www.j-signal.jp/PicsApi/data/map/22/014FB187.html","StartDate":"20200424","EndDate":"20991231","DemoFlg":0,"PedestrianSignals":[{"Name":"歩車分離式信号機すべての歩行者用信号","Kana":"ほしゃぶんりしきしんごうきすべてのほこうしゃようしんごう"},{"Name":"歩車分離式信号機すべての歩行者用信号","Kana":"ほしゃぶんりしきしんごうきすべてのほこうしゃようしんごう"},{"Name":"歩車分離式信号機すべての歩行者用信号","Kana":"ほしゃぶんりしきしんごうきすべてのほこうしゃようしんごう"},{"Name":"","Kana":""},{"Name":"","Kana":""},{"Name":"","Kana":""}]},{"IntersectionId":"014FB189","Latitude":34.973544,"Longitude":138.387032,"Radius":24.0,"GenerationNumber":1,"Name":"御幸町南交差点","Kana":"みゆきちょうみなみこうさてん","URL":"https://www.j-signal.jp/PicsApi/data/map/22/014FB189.html","StartDate":"20200424","EndDate":"20991231","DemoFlg":0,"PedestrianSignals":[{"Name":"歩車分離式信号機すべての歩行者用信号","Kana":"ほしゃぶんりしきしんごうきすべてのほこうしゃようしんごう"},{"Name":"歩車分離式信号機すべての歩行者用信号","Kana":"ほしゃぶんりしきしんごうきすべてのほこうしゃようしんごう"},{"Name":"歩車分離式信号機すべての歩行者用信号","Kana":"ほしゃぶんりしきしんごうきすべてのほこうしゃようしんごう"},{"Name":"","Kana":""},{"Name":"","Kana":""},{"Name":"","Kana":""}]},{"IntersectionId":"014FB18C","Latitude":35.119435,"Longitude":138.914800,"Radius":25.0,"GenerationNumber":1,"Name":"本町交差点","Kana":"ほんちょうこうさてん","URL":"https://www.j-signal.jp/PicsApi/data/map/22/014FB18C.html","StartDate":"20200424","EndDate":"20991231","DemoFlg":0,"PedestrianSignals":[{"Name":"歩車分離式信号機すべての歩行者用信号","Kana":"ほしゃぶんりしきしんごうきすべてのほこうしゃようしんごう"},{"Name":"歩車分離式信号機すべての歩行者用信号","Kana":"ほしゃぶんりしきしんごうきすべてのほこうしゃようしんごう"},{"Name":"","Kana":""},{"Name":"","Kana":""},{"Name":"","Kana":""},{"Name":"","Kana":""}]},{"IntersectionId":"014FB18D","Latitude":35.125691,"Longitude":138.914265,"Radius":32.0,"GenerationNumber":1,"Name":"三島駅東交差点","Kana":"みしまえきひがしこうさてん","URL":"https://www.j-signal.jp/PicsApi/data/map/22/014FB18D.html","StartDate":"20200424","EndDate":"20991231","DemoFlg":0,"PedestrianSignals":[{"Name":"歩車分離式信号機すべての歩行者用信号","Kana":"ほしゃぶんりしきしんごうきすべてのほこうしゃようしんごう"},{"Name":"歩車分離式信号機すべての歩行者用信号","Kana":"ほしゃぶんりしきしんごうきすべてのほこうしゃようしんごう"},{"Name":"","Kana":""},{"Name":"","Kana":""},{"Name":"","Kana":""},{"Name":"","Kana":""}]},{"IntersectionId":"014FB18F","Latitude":35.125552,"Longitude":138.912630,"Radius":28.0,"GenerationNumber":1,"Name":"三島駅前交差点","Kana":"みしまえきまえこうさてん","URL":"https://www.j-signal.jp/PicsApi/data/map/22/014FB18F.html","StartDate":"20200424","EndDate":"20991231","DemoFlg":0,"PedestrianSignals":[{"Name":"","Kana":""},{"Name":"","Kana":""},{"Name":"歩車分離式信号機すべての歩行者用信号","Kana":"ほしゃぶんりしきしんごうきすべてのほこうしゃようしんごう"},{"Name":"歩車分離式信号機すべての歩行者用信号","Kana":"ほしゃぶんりしきしんごうきすべてのほこうしゃようしんごう"},{"Name":"","Kana":""},{"Name":"","Kana":""}]},{"IntersectionId":"014FB191","Latitude":35.128801,"Longitude":138.910606,"Radius":32.0,"GenerationNumber":1,"Name":"三島駅北口交差点","Kana":"みしまえききたぐちこうさてん","URL":"https://www.j-signal.jp/PicsApi/data/map/22/014FB191.html","StartDate":"20200424","EndDate":"20991231","DemoFlg":0,"PedestrianSignals":[{"Name":"歩車分離式信号機すべての歩行者用信号","Kana":"ほしゃぶんりしきしんごうきすべてのほこうしゃようしんごう"},{"Name":"歩車分離式信号機すべての歩行者用信号","Kana":"ほしゃぶんりしきしんごうきすべてのほこうしゃようしんごう"},{"Name":"","Kana":""},{"Name":"","Kana":""},{"Name":"","Kana":""},{"Name":"","Kana":""}]},{"IntersectionId":"014FB192","Latitude":35.128032,"Longitude":138.914506,"Radius":30.0,"GenerationNumber":1,"Name":"区検前交差点","Kana":"くけんまえこうさてん","URL":"https://www.j-signal.jp/PicsApi/data/map/22/014FB192.html","StartDate":"20200424","EndDate":"20991231","DemoFlg":0,"PedestrianSignals":[{"Name":"歩車分離式信号機すべての歩行者用信号","Kana":"ほしゃぶんりしきしんごうきすべてのほこうしゃようしんごう"},{"Name":"歩車分離式信号機すべての歩行者用信号","Kana":"ほしゃぶんりしきしんごうきすべてのほこうしゃようしんごう"},{"Name":"","Kana":""},{"Name":"","Kana":""},{"Name":"","Kana":""},{"Name":"","Kana":""}]},{"IntersectionId":"014FB193","Latitude":35.120552,"Longitude":138.914582,"Radius":19.0,"GenerationNumber":1,"Name":"本町北交差点","Kana":"ほんちょうきたこうさてん","URL":"https://www.j-signal.jp/PicsApi/data/map/22/014FB193.html","StartDate":"20200424","EndDate":"20991231","DemoFlg":0,"PedestrianSignals":[{"Name":"南北方向","Kana":"なんぼくほうこう"},{"Name":"東西方向","Kana":"とうざいほうこう"},{"Name":"","Kana":""},{"Name":"","Kana":""},{"Name":"","Kana":""},{"Name":"","Kana":""}]},{"IntersectionId":"003D24E9","Latitude":38.173269,"Longitude":140.879824,"Radius":29.0,"GenerationNumber":1,"Name":"名取駅西口交差点","Kana":"なとりえきにしぐちこうさてん","URL":"https://www.j-signal.jp/PicsApi/data/map/04/003D24E9.html","StartDate":"20210521","EndDate":"20991231","DemoFlg":0,"PedestrianSignals":[{"Name":"全ての方向","Kana":"すべてのほうこう"},{"Name":"全ての方向","Kana":"すべてのほうこう"},{"Name":"","Kana":""},{"Name":"","Kana":""},{"Name":"","Kana":""},{"Name":"","Kana":""}]},{"IntersectionId":"003D43EF","Latitude":38.573357,"Longitude":140.966461,"Radius":30.0,"GenerationNumber":1,"Name":"大崎市医師会館前交差点","Kana":"おおさきしいしかいかんまえこうさてん","URL":"https://www.j-signal.jp/PicsApi/data/map/04/003D43EF.html","StartDate":"20210630","EndDate":"20991231","DemoFlg":0,"PedestrianSignals":[{"Name":"東西","Kana":"とうざい"},{"Name":"南北","Kana":"なんぼく"},{"Name":"","Kana":""},{"Name":"","Kana":""},{"Name":"","Kana":""},{"Name":"","Kana":""}]},{"IntersectionId":"016E3603","Latitude":34.733173,"Longitude":136.513209,"Radius":37.0,"GenerationNumber":1,"Name":"国道２３号津駅入口交差点","Kana":"こくどうにじゅうさんごうつえきいりぐちこうさてん","URL":"https://www.j-signal.jp/PicsApi/data/map/24/016E3603.html","StartDate":"20210830","EndDate":"20991231","DemoFlg":0,"PedestrianSignals":[{"Name":"東西方向","Kana":"とうざいほうこう"},{"Name":"南北方向","Kana":"なんぼくほうこう"},{"Name":"","Kana":""},{"Name":"","Kana":""},{"Name":"","Kana":""},{"Name":"","Kana":""}]},{"IntersectionId":"016E3604","Latitude":34.733462,"Longitude":136.511482,"Radius":38.0,"GenerationNumber":1,"Name":"津駅前交差点","Kana":"つえきまえこうさてん","URL":"https://www.j-signal.jp/PicsApi/data/map/24/016E3604.html","StartDate":"20210830","EndDate":"20991231","DemoFlg":0,"PedestrianSignals":[{"Name":"東西方向","Kana":"とうざいほうこう"},{"Name":"南北方向","Kana":"なんぼくほうこう"},{"Name":"","Kana":""},{"Name":"","Kana":""},{"Name":"","Kana":""},{"Name":"","Kana":""}]},{"IntersectionId":"016E3605","Latitude":34.733582,"Longitude":136.508611,"Radius":21.0,"GenerationNumber":1,"Name":"津駅西交差点","Kana":"つえきにしこうさてん","URL":"https://www.j-signal.jp/PicsApi/data/map/24/016E3605.html","StartDate":"20211220","EndDate":"20991231","DemoFlg":0,"PedestrianSignals":[{"Name":"すべての歩行者用信号","Kana":"すべてのほこうしゃようしんごう"},{"Name":"","Kana":""},{"Name":"","Kana":""},{"Name":"","Kana":""},{"Name":"","Kana":""},{"Name":"","Kana":""}]},{"IntersectionId":"016E3606","Latitude":34.715792,"Longitude":136.502813,"Radius":21.0,"GenerationNumber":1,"Name":"中新町交差点","Kana":"なかしんまちこうさてん","URL":"https://www.j-signal.jp/PicsApi/data/map/24/016E3606.html","StartDate":"20211220","EndDate":"20991231","DemoFlg":0,"PedestrianSignals":[{"Name":"東西方向","Kana":"とうざいほうこう"},{"Name":"南北方向","Kana":"なんぼくほうこう"},{"Name":"","Kana":""},{"Name":"","Kana":""},{"Name":"","Kana":""},{"Name":"","Kana":""}]},{"IntersectionId":"016E3607","Latitude":34.732372,"Longitude":136.519144,"Radius":28.0,"GenerationNumber":1,"Name":"島崎町交差点","Kana":"しまざきちょうこうさてん","URL":"https://www.j-signal.jp/PicsApi/data/map/24/016E3607.html","StartDate":"20211220","EndDate":"20991231","DemoFlg":0,"PedestrianSignals":[{"Name":"南北方向","Kana":"なんぼくほうこう"},{"Name":"東西方向","Kana":"とうざいほうこう"},{"Name":"","Kana":""},{"Name":"","Kana":""},{"Name":"","Kana":""},{"Name":"","Kana":""}]},{"IntersectionId":"016E3608","Latitude":34.732574,"Longitude":136.508387,"Radius":33.0,"GenerationNumber":1,"Name":"護国神社交差点","Kana":"ごこくじんじゃこうさてん","URL":"https://www.j-signal.jp/PicsApi/data/map/24/016E3608.html","StartDate":"20211220","EndDate":"20991231","DemoFlg":0,"PedestrianSignals":[{"Name":"南北方向","Kana":"なんぼくほうこう"},{"Name":"","Kana":""},{"Name":"東西方向","Kana":"とうざいほうこう"},{"Name":"","Kana":""},{"Name":"","Kana":""},{"Name":"","Kana":""}]},{"IntersectionId":"016E3609","Latitude":34.717807,"Longitude":136.503848,"Radius":15.0,"GenerationNumber":1,"Name":"津リージョンプラザ南交差点","Kana":"つりーじょんぷらざみなみこうさてん","URL":"https://www.j-signal.jp/PicsApi/data/map/24/016E3609.html","StartDate":"20211220","EndDate":"20991231","DemoFlg":0,"PedestrianSignals":[{"Name":"南北方向","Kana":"なんぼくほうこう"},{"Name":"東西方向","Kana":"とうざいほうこう"},{"Name":"","Kana":""},{"Name":"","Kana":""},{"Name":"","Kana":""},{"Name":"","Kana":""}]},{"IntersectionId":"016E360A","Latitude":34.732709,"Longitude":136.516618,"Radius":20.0,"GenerationNumber":1,"Name":"桜橋二丁目交差点","Kana":"さくらばしにちょうめこうさてん","URL":"https://www.j-signal.jp/PicsApi/data/map/24/016E360A.html","StartDate":"20211220","EndDate":"20991231","DemoFlg":0,"PedestrianSignals":[{"Name":"東西方向","Kana":"とうざいほうこう"},{"Name":"南北方向","Kana":"なんぼくほうこう"},{"Name":"","Kana":""},{"Name":"","Kana":""},{"Name":"","Kana":""},{"Name":"","Kana":""}]},{"IntersectionId":"016E360B","Latitude":34.731427,"Longitude":136.514442,"Radius":15.0,"GenerationNumber":1,"Name":"税務署前交差点","Kana":"ぜいむしょまえこうさてん","URL":"https://www.j-signal.jp/PicsApi/data/map/24/016E360B.html","StartDate":"20211220","EndDate":"20991231","DemoFlg":0,"PedestrianSignals":[{"Name":"南北方向","Kana":"なんぼくほうこう"},{"Name":"東西方向","Kana":"とうざいほうこう"},{"Name":"","Kana":""},{"Name":"","Kana":""},{"Name":"","Kana":""},{"Name":"","Kana":""}]},{"IntersectionId":"016E360C","Latitude":34.965168,"Longitude":136.622241,"Radius":47.0,"GenerationNumber":1,"Name":"諏訪栄町交差点","Kana":"すわさかえまちこうさてん","URL":"https://www.j-signal.jp/PicsApi/data/map/24/016E360C.html","StartDate":"20211220","EndDate":"20991231","DemoFlg":0,"PedestrianSignals":[{"Name":"南北方向","Kana":"なんぼくほうこう"},{"Name":"東西方向","Kana":"とうざいほうこう"},{"Name":"","Kana":""},{"Name":"","Kana":""},{"Name":"","Kana":""},{"Name":"","Kana":""}]},{"IntersectionId":"016E360D","Latitude":34.962837,"Longitude":136.628263,"Radius":10.0,"GenerationNumber":1,"Name":"ＪＲ四日市駅前交差点","Kana":"じぇいあーるよっかいちえきまえこうさてん","URL":"https://www.j-signal.jp/PicsApi/data/map/24/016E360D.html","StartDate":"20211220","EndDate":"20991231","DemoFlg":0,"PedestrianSignals":[{"Name":"東西方向","Kana":"とうざいほうこう"},{"Name":"","Kana":""},{"Name":"","Kana":""},{"Name":"","Kana":""},{"Name":"","Kana":""},{"Name":"","Kana":""}]},{"IntersectionId":"016E360E","Latitude":34.966158,"Longitude":136.622695,"Radius":22.0,"GenerationNumber":1,"Name":"諏訪町南交差点","Kana":"すわちょうみなみこうさてん","URL":"https://www.j-signal.jp/PicsApi/data/map/24/016E360E.html","StartDate":"20211220","EndDate":"20991231","DemoFlg":0,"PedestrianSignals":[{"Name":"南北方向","Kana":"なんぼくほうこう"},{"Name":"東西方向","Kana":"とうざいほうこう"},{"Name":"","Kana":""},{"Name":"","Kana":""},{"Name":"","Kana":""},{"Name":"","Kana":""}]},{"IntersectionId":"016E360F","Latitude":34.967746,"Longitude":136.613909,"Radius":39.0,"GenerationNumber":1,"Name":"鵜の森二丁目交差点","Kana":"うのもりにちょうめこうさてん","URL":"https://www.j-signal.jp/PicsApi/data/map/24/016E360F.html","StartDate":"20211220","EndDate":"20991231","DemoFlg":0,"PedestrianSignals":[{"Name":"東西方向","Kana":"とうざいほうこう"},{"Name":"南北方向","Kana":"なんぼくほうこう"},{"Name":"","Kana":""},{"Name":"","Kana":""},{"Name":"","Kana":""},{"Name":"","Kana":""}]},{"IntersectionId":"016E3610","Latitude":34.966372,"Longitude":136.617449,"Radius":29.0,"GenerationNumber":1,"Name":"近鉄四日市駅西交差点","Kana":"きんてつよっかいちえきにしこうさてん","URL":"https://www.j-signal.jp/PicsApi/data/map/24/016E3610.html","StartDate":"20211220","EndDate":"20991231","DemoFlg":0,"PedestrianSignals":[{"Name":"東西方向","Kana":"とうざいほうこう"},{"Name":"南北方向","Kana":"なんぼくほうこう"},{"Name":"","Kana":""},{"Name":"","Kana":""},{"Name":"","Kana":""},{"Name":"","Kana":""}]},{"IntersectionId":"016E3612","Latitude":34.967591,"Longitude":136.619606,"Radius":14.0,"GenerationNumber":1,"Name":"ふれあいモール東交差点","Kana":"ふれあいもーるひがしこうさてん","URL":"https://www.j-signal.jp/PicsApi/data/map/24/016E3612.html","StartDate":"20211220","EndDate":"20991231","DemoFlg":0,"PedestrianSignals":[{"Name":"東西方向","Kana":"とうざいほうこう"},{"Name":"","Kana":""},{"Name":"","Kana":""},{"Name":"","Kana":""},{"Name":"","Kana":""},{"Name":"","Kana":""}]},{"IntersectionId":"016E3613","Latitude":34.968385,"Longitude":136.612202,"Radius":41.0,"GenerationNumber":1,"Name":"安島二丁目交差点","Kana":"やすじまにちょうめこうさてん","URL":"https://www.j-signal.jp/PicsApi/data/map/24/016E3613.html","StartDate":"20211220","EndDate":"20991231","DemoFlg":0,"PedestrianSignals":[{"Name":"東西方向","Kana":"とうざいほうこう"},{"Name":"南北方向","Kana":"なんぼくほうこう"},{"Name":"","Kana":""},{"Name":"","Kana":""},{"Name":"","Kana":""},{"Name":"","Kana":""}]},{"IntersectionId":"016E3614","Latitude":34.966817,"Longitude":136.616461,"Radius":35.0,"GenerationNumber":1,"Name":"市民公園東交差点","Kana":"しみんこうえんひがしこうさてん","URL":"https://www.j-signal.jp/PicsApi/data/map/24/016E3614.html","StartDate":"20211220","EndDate":"20991231","DemoFlg":0,"PedestrianSignals":[{"Name":"東西方向","Kana":"とうざいほうこう"},{"Name":"南北方向","Kana":"なんぼくほうこう"},{"Name":"","Kana":""},{"Name":"","Kana":""},{"Name":"","Kana":""},{"Name":"","Kana":""}]},{"IntersectionId":"016E3615","Latitude":34.967378,"Longitude":136.614865,"Radius":39.0,"GenerationNumber":1,"Name":"博物館前交差点","Kana":"はくぶつかんまえこうさてん","URL":"https://www.j-signal.jp/PicsApi/data/map/24/016E3615.html","StartDate":"20211220","EndDate":"20991231","DemoFlg":0,"PedestrianSignals":[{"Name":"東西方向","Kana":"とうざいほうこう"},{"Name":"南北方向","Kana":"なんぼくほうこう"},{"Name":"","Kana":""},{"Name":"","Kana":""},{"Name":"","Kana":""},{"Name":"","Kana":""}]},{"IntersectionId":"016E3616","Latitude":34.964119,"Longitude":136.625092,"Radius":33.0,"GenerationNumber":1,"Name":"中央ロータリー交差点","Kana":"ちゅうおうろーたりーこうさてん","URL":"https://www.j-signal.jp/PicsApi/data/map/24/016E3616.html","StartDate":"20211220","EndDate":"20991231","DemoFlg":0,"PedestrianSignals":[{"Name":"南北方向","Kana":"なんぼくほうこう"},{"Name":"東西方向","Kana":"とうざいほうこう"},{"Name":"","Kana":""},{"Name":"","Kana":""},{"Name":"","Kana":""},{"Name":"","Kana":""}]},{"IntersectionId":"01AB3F01","Latitude":34.709049,"Longitude":135.215471,"Radius":25.0,"GenerationNumber":1,"Name":"王子公園前交差点","Kana":"おうじこうえんまえこうさてん","URL":"https://www.j-signal.jp/PicsApi/data/map/28/01AB3F01.html","StartDate":"20211220","EndDate":"20991231","DemoFlg":0,"PedestrianSignals":[{"Name":"東西方向","Kana":"とうざいほうこう"},{"Name":"南北方向","Kana":"なんぼくほうこう"},{"Name":"","Kana":""},{"Name":"","Kana":""},{"Name":"","Kana":""},{"Name":"","Kana":""}]},{"IntersectionId":"01AB3F02","Latitude":34.709366,"Longitude":135.217303,"Radius":56.0,"GenerationNumber":1,"Name":"阪急王子公園駅前交差点","Kana":"はんきゅうおうじこうえんえきまえこうさてん","URL":"https://www.j-signal.jp/PicsApi/data/map/28/01AB3F02.html","StartDate":"20211220","EndDate":"20991231","DemoFlg":0,"PedestrianSignals":[{"Name":"東西方向","Kana":"とうざいほうこう"},{"Name":"南北方向","Kana":"なんぼくほうこう"},{"Name":"","Kana":""},{"Name":"","Kana":""},{"Name":"","Kana":""},{"Name":"","Kana":""}]},{"IntersectionId":"01AB3F03","Latitude":34.708772,"Longitude":135.213031,"Radius":28.0,"GenerationNumber":1,"Name":"坂口通1丁目交差点","Kana":"さかぐちどおりいっちょうめこうさてん","URL":"https://www.j-signal.jp/PicsApi/data/map/28/01AB3F03.html","StartDate":"20211220","EndDate":"20991231","DemoFlg":0,"PedestrianSignals":[{"Name":"東西方向","Kana":"とうざいほうこう"},{"Name":"南北方向","Kana":"なんぼくほうこう"},{"Name":"","Kana":""},{"Name":"","Kana":""},{"Name":"","Kana":""},{"Name":"","Kana":""}]},{"IntersectionId":"01AB3F04","Latitude":34.708448,"Longitude":135.211648,"Radius":24.0,"GenerationNumber":1,"Name":"上筒井1丁目交差点","Kana":"かみつついいっちょうめこうさてん","URL":"https://www.j-signal.jp/PicsApi/data/map/28/01AB3F04.html","StartDate":"20211220","EndDate":"20991231","DemoFlg":0,"PedestrianSignals":[{"Name":"東西方向","Kana":"とうざいほうこう"},{"Name":"南北方向","Kana":"なんぼくほうこう"},{"Name":"","Kana":""},{"Name":"","Kana":""},{"Name":"","Kana":""},{"Name":"","Kana":""}]},{"IntersectionId":"01AB3F05","Latitude":34.680873,"Longitude":135.177124,"Radius":47.0,"GenerationNumber":1,"Name":"湊川神社前交差点","Kana":"みなとがわじんじゃまえこうさてん","URL":"https://www.j-signal.jp/PicsApi/data/map/28/01AB3F05.html","StartDate":"20211220","EndDate":"20991231","DemoFlg":0,"PedestrianSignals":[{"Name":"東西方向","Kana":"とうざいほうこう"},{"Name":"南北方向","Kana":"なんぼくほうこう"},{"Name":"","Kana":""},{"Name":"","Kana":""},{"Name":"","Kana":""},{"Name":"","Kana":""}]},{"IntersectionId":"01AB3F06","Latitude":34.680019,"Longitude":135.177326,"Radius":14.0,"GenerationNumber":1,"Name":"神戸駅前交差点","Kana":"こうべえきまえこうさてん","URL":"https://www.j-signal.jp/PicsApi/data/map/28/01AB3F06.html","StartDate":"20211220","EndDate":"20991231","DemoFlg":0,"PedestrianSignals":[{"Name":"","Kana":""},{"Name":"","Kana":""},{"Name":"西側横断歩道の南北方向","Kana":"にしがわおうだんほどうのなんぼくほうこう"},{"Name":"","Kana":""},{"Name":"","Kana":""},{"Name":"","Kana":""}]},{"IntersectionId":"01AB3F08","Latitude":34.679555,"Longitude":135.176575,"Radius":34.0,"GenerationNumber":1,"Name":"神戸駅西交差点","Kana":"こうべえきにしこうさてん","URL":"https://www.j-signal.jp/PicsApi/data/map/28/01AB3F08.html","StartDate":"20211220","EndDate":"20991231","DemoFlg":0,"PedestrianSignals":[{"Name":"南北方向","Kana":"なんぼくほうこう"},{"Name":"東西方向","Kana":"とうざいほうこう"},{"Name":"","Kana":""},{"Name":"","Kana":""},{"Name":"","Kana":""},{"Name":"","Kana":""}]},{"IntersectionId":"01AB3F09","Latitude":34.729255,"Longitude":135.412421,"Radius":32.0,"GenerationNumber":1,"Name":"総合医療センター南交差点","Kana":"そうごういりょうせんたーみなみこうさてん","URL":"https://www.j-signal.jp/PicsApi/data/map/28/01AB3F09.html","StartDate":"20211220","EndDate":"20991231","DemoFlg":0,"PedestrianSignals":[{"Name":"南北方向","Kana":"なんぼくほうこう"},{"Name":"東西方向","Kana":"とうざいほうこう"},{"Name":"","Kana":""},{"Name":"","Kana":""},{"Name":"","Kana":""},{"Name":"","Kana":""}]},{"IntersectionId":"01AB3F0A","Latitude":34.732721,"Longitude":135.405805,"Radius":29.0,"GenerationNumber":1,"Name":"尼崎市役所前交差点","Kana":"あまがさきしやくしょまえこうさてん","URL":"https://www.j-signal.jp/PicsApi/data/map/28/01AB3F0A.html","StartDate":"20211220","EndDate":"20991231","DemoFlg":0,"PedestrianSignals":[{"Name":"東西方向","Kana":"とうざいほうこう"},{"Name":"南北方向","Kana":"なんぼくほうこう"},{"Name":"","Kana":""},{"Name":"","Kana":""},{"Name":"","Kana":""},{"Name":"","Kana":""}]},{"IntersectionId":"01AB3F0B","Latitude":34.730563,"Longitude":135.412269,"Radius":25.0,"GenerationNumber":1,"Name":"総合医療センター前交差点","Kana":"そうごういりょうせんたーまえこうさてん","URL":"https://www.j-signal.jp/PicsApi/data/map/28/01AB3F0B.html","StartDate":"20211220","EndDate":"20991231","DemoFlg":0,"PedestrianSignals":[{"Name":"","Kana":""},{"Name":"東西方向","Kana":"とうざいほうこう"},{"Name":"","Kana":""},{"Name":"","Kana":""},{"Name":"","Kana":""},{"Name":"","Kana":""}]},{"IntersectionId":"01AB3F07","Latitude":34.680155,"Longitude":135.175909,"Radius":39.0,"GenerationNumber":1,"Name":"湊川神社西交差点","Kana":"みなとがわじんじゃにしこうさてん","URL":"https://www.j-signal.jp/PicsApi/data/map/28/01AB3F07.html","StartDate":"20211220","EndDate":"20991231","DemoFlg":0,"PedestrianSignals":[{"Name":"東西方向","Kana":"とうざいほうこう"},{"Name":"","Kana":""},{"Name":"南北方向","Kana":"なんぼくほうこう"},{"Name":"","Kana":""},{"Name":"","Kana":""},{"Name":"","Kana":""}]},{"IntersectionId":"016E3618","Latitude":34.486493,"Longitude":136.712939,"Radius":24.0,"GenerationNumber":1,"Name":"岩渕交差点","Kana":"いわぶちこうさてん","URL":"https://www.j-signal.jp/PicsApi/data/map/24/016E3618.html","StartDate":"20220124","EndDate":"20991231","DemoFlg":0,"PedestrianSignals":[{"Name":"東西方向","Kana":"とうざいほうこう"},{"Name":"南北方向","Kana":"なんぼくほうこう"},{"Name":"","Kana":""},{"Name":"","Kana":""},{"Name":"","Kana":""},{"Name":"","Kana":""}]},{"IntersectionId":"016E3619","Latitude":34.491013,"Longitude":136.708546,"Radius":27.0,"GenerationNumber":1,"Name":"伊勢市駅西交差点","Kana":"いせしえきにしこうさてん","URL":"https://www.j-signal.jp/PicsApi/data/map/24/016E3619.html","StartDate":"20220124","EndDate":"20991231","DemoFlg":0,"PedestrianSignals":[{"Name":"南北方向","Kana":"なんぼくほうこう"},{"Name":"","Kana":""},{"Name":"東西方向","Kana":"とうざいほうこう"},{"Name":"","Kana":""},{"Name":"","Kana":""},{"Name":"","Kana":""}]},{"IntersectionId":"016E361A","Latitude":34.489436,"Longitude":136.710421,"Radius":25.0,"GenerationNumber":1,"Name":"吹上交差点","Kana":"ふきあげこうさてん","URL":"https://www.j-signal.jp/PicsApi/data/map/24/016E361A.html","StartDate":"20220124","EndDate":"20991231","DemoFlg":0,"PedestrianSignals":[{"Name":"南北方向","Kana":"なんぼくほうこう"},{"Name":"東西方向","Kana":"とうざいほうこう"},{"Name":"","Kana":""},{"Name":"","Kana":""},{"Name":"","Kana":""},{"Name":"","Kana":""}]},{"IntersectionId":"016E361B","Latitude":34.466087,"Longitude":136.721584,"Radius":31.0,"GenerationNumber":1,"Name":"宇治浦田町交差点","Kana":"うじうらたちょうこうさてん","URL":"https://www.j-signal.jp/PicsApi/data/map/24/016E361B.html","StartDate":"20220124","EndDate":"20991231","DemoFlg":0,"PedestrianSignals":[{"Name":"東西方向","Kana":"とうざいほうこう"},{"Name":"南北方向","Kana":"なんぼくほうこう"},{"Name":"","Kana":""},{"Name":"","Kana":""},{"Name":"","Kana":""},{"Name":"","Kana":""}]},{"IntersectionId":"016E361C","Latitude":34.490636,"Longitude":136.709274,"Radius":11.0,"GenerationNumber":1,"Name":"伊勢市駅前交差点","Kana":"いせしえきまえこうさてん","URL":"https://www.j-signal.jp/PicsApi/data/map/24/016E361C.html","StartDate":"20220124","EndDate":"20991231","DemoFlg":0,"PedestrianSignals":[{"Name":"","Kana":""},{"Name":"南北方向","Kana":"なんぼくほうこう"},{"Name":"","Kana":""},{"Name":"","Kana":""},{"Name":"","Kana":""},{"Name":"","Kana":""}]},{"IntersectionId":"016E361D","Latitude":34.486967,"Longitude":136.710283,"Radius":22.0,"GenerationNumber":1,"Name":"伊勢簡易裁判所前交差点","Kana":"いせかんいさいばんしょまえこうさてん","URL":"https://www.j-signal.jp/PicsApi/data/map/24/016E361D.html","StartDate":"20220124","EndDate":"20991231","DemoFlg":0,"PedestrianSignals":[{"Name":"東西方向","Kana":"とうざいほうこう"},{"Name":"南北方向","Kana":"なんぼくほうこう"},{"Name":"","Kana":""},{"Name":"","Kana":""},{"Name":"","Kana":""},{"Name":"","Kana":""}]},{"IntersectionId":"016E361E","Latitude":34.487113,"Longitude":136.713077,"Radius":19.0,"GenerationNumber":1,"Name":"岩渕２交差点","Kana":"いわぶちにこうさてん","URL":"https://www.j-signal.jp/PicsApi/data/map/24/016E361E.html","StartDate":"20220124","EndDate":"20991231","DemoFlg":0,"PedestrianSignals":[{"Name":"南北方向","Kana":"なんぼくほうこう"},{"Name":"東西方向","Kana":"とうざいほうこう"},{"Name":"","Kana":""},{"Name":"","Kana":""},{"Name":"","Kana":""},{"Name":"","Kana":""}]},{"IntersectionId":"016E361F","Latitude":34.490215,"Longitude":136.708839,"Radius":13.0,"GenerationNumber":1,"Name":"本町３交差点","Kana":"ほんまちさんこうさてん","URL":"https://www.j-signal.jp/PicsApi/data/map/24/016E361F.html","StartDate":"20220124","EndDate":"20991231","DemoFlg":0,"PedestrianSignals":[{"Name":"","Kana":""},{"Name":"すべての歩行者用信号","Kana":"すべてのほこうしゃようしんごう"},{"Name":"","Kana":""},{"Name":"","Kana":""},{"Name":"","Kana":""},{"Name":"","Kana":""}]},{"IntersectionId":"016E3620","Latitude":34.488150,"Longitude":136.707041,"Radius":20.0,"GenerationNumber":1,"Name":"本町４交差点","Kana":"ほんまちよんこうさてん","URL":"https://www.j-signal.jp/PicsApi/data/map/24/016E3620.html","StartDate":"20220124","EndDate":"20991231","DemoFlg":0,"PedestrianSignals":[{"Name":"東西方向","Kana":"とうざいほうこう"},{"Name":"南北方向","Kana":"なんぼくほうこう"},{"Name":"","Kana":""},{"Name":"","Kana":""},{"Name":"","Kana":""},{"Name":"","Kana":""}]},{"IntersectionId":"016E3621","Latitude":34.487617,"Longitude":136.706856,"Radius":32.0,"GenerationNumber":1,"Name":"外宮前交差点","Kana":"げくうまえこうさてん","URL":"https://www.j-signal.jp/PicsApi/data/map/24/016E3621.html","StartDate":"20220124","EndDate":"20991231","DemoFlg":0,"PedestrianSignals":[{"Name":"南北方向","Kana":"なんぼくほうこう"},{"Name":"東西方向","Kana":"とうざいほうこう"},{"Name":"","Kana":""},{"Name":"","Kana":""},{"Name":"","Kana":""},{"Name":"","Kana":""}]},{"IntersectionId":"016E3622","Latitude":34.487470,"Longitude":136.707651,"Radius":19.0,"GenerationNumber":1,"Name":"伊勢市役所西交差点","Kana":"いせしやくしょにしこうさてん","URL":"https://www.j-signal.jp/PicsApi/data/map/24/016E3622.html","StartDate":"20220124","EndDate":"20991231","DemoFlg":0,"PedestrianSignals":[{"Name":"東西方向","Kana":"とうざいほうこう"},{"Name":"南北方向","Kana":"なんぼくほうこう"},{"Name":"","Kana":""},{"Name":"","Kana":""},{"Name":"","Kana":""},{"Name":"","Kana":""}]},{"IntersectionId":"016E3623","Latitude":34.464584,"Longitude":136.726174,"Radius":23.0,"GenerationNumber":1,"Name":"競技場前交差点","Kana":"きょうぎじょうまえこうさてん","URL":"https://www.j-signal.jp/PicsApi/data/map/24/016E3623.html","StartDate":"20220124","EndDate":"20991231","DemoFlg":0,"PedestrianSignals":[{"Name":"南北方向","Kana":"なんぼくほうこう"},{"Name":"東西方向","Kana":"とうざいほうこう"},{"Name":"","Kana":""},{"Name":"","Kana":""},{"Name":"","Kana":""},{"Name":"","Kana":""}]},{"IntersectionId":"016E3624","Latitude":34.465583,"Longitude":136.723468,"Radius":29.0,"GenerationNumber":1,"Name":"宇治浦田東交差点","Kana":"うじうらたひがしこうさてん","URL":"https://www.j-signal.jp/PicsApi/data/map/24/016E3624.html","StartDate":"20220124","EndDate":"20991231","DemoFlg":0,"PedestrianSignals":[{"Name":"東西方向","Kana":"とうざいほうこう"},{"Name":"","Kana":""},{"Name":"","Kana":""},{"Name":"","Kana":""},{"Name":"","Kana":""},{"Name":"","Kana":""}]},{"IntersectionId":"016E3625","Latitude":34.488395,"Longitude":136.713138,"Radius":20.0,"GenerationNumber":1,"Name":"宇治山田駅前交差点","Kana":"うじやまだえきまえこうさてん","URL":"https://www.j-signal.jp/PicsApi/data/map/24/016E3625.html","StartDate":"20220124","EndDate":"20991231","DemoFlg":0,"PedestrianSignals":[{"Name":"南北方向","Kana":"なんぼくほうこう"},{"Name":"東西方向","Kana":"とうざいほうこう"},{"Name":"","Kana":""},{"Name":"","Kana":""},{"Name":"","Kana":""},{"Name":"","Kana":""}]},{"IntersectionId":"016E3626","Latitude":34.462255,"Longitude":136.721607,"Radius":10.0,"GenerationNumber":1,"Name":"宇治中之切町交差点","Kana":"うじなかのきりちょうこうさてん","URL":"https://www.j-signal.jp/PicsApi/data/map/24/016E3626.html","StartDate":"20220124","EndDate":"20991231","DemoFlg":0,"PedestrianSignals":[{"Name":"","Kana":""},{"Name":"東西方向","Kana":"とうざいほうこう"},{"Name":"","Kana":""},{"Name":"","Kana":""},{"Name":"","Kana":""},{"Name":"","Kana":""}]},{"IntersectionId":"016E3627","Latitude":34.459725,"Longitude":136.722108,"Radius":11.0,"GenerationNumber":1,"Name":"内宮前交差点","Kana":"ないくうまえこうさてん","URL":"https://www.j-signal.jp/PicsApi/data/map/24/016E3627.html","StartDate":"20220124","EndDate":"20991231","DemoFlg":0,"PedestrianSignals":[{"Name":"東西方向","Kana":"とうざいほうこう"},{"Name":"","Kana":""},{"Name":"","Kana":""},{"Name":"","Kana":""},{"Name":"","Kana":""},{"Name":"","Kana":""}]},{"IntersectionId":"02625E5F","Latitude":33.590339,"Longitude":130.371678,"Radius":34.0,"GenerationNumber":1,"Name":"黒門西","Kana":"くろもんにし","URL":"https://www.j-signal.jp/PicsApi/data/map/40/02625E5F.html","StartDate":"20220131","EndDate":"20991231","DemoFlg":0,"PedestrianSignals":[{"Name":"明治通り沿い方向","Kana":"めいじどおりぞいほうこう"},{"Name":"明治通り横断方向","Kana":"めいじどおりおうだんほうこう"},{"Name":"","Kana":""},{"Name":"","Kana":""},{"Name":"","Kana":""},{"Name":"","Kana":""}]},{"IntersectionId":"026261A3","Latitude":33.590408,"Longitude":130.372921,"Radius":38.0,"GenerationNumber":1,"Name":"黒門橋","Kana":"くろもんばし","URL":"https://www.j-signal.jp/PicsApi/data/map/40/026261A3.html","StartDate":"20220131","EndDate":"20991231","DemoFlg":0,"PedestrianSignals":[{"Name":"明治通り沿い方向","Kana":"めいじどおりぞいほうこう"},{"Name":"明治通り横断方向","Kana":"めいじどおりおうだんほうこう"},{"Name":"","Kana":""},{"Name":"","Kana":""},{"Name":"","Kana":""},{"Name":"","Kana":""}]},{"IntersectionId":"02626EFE","Latitude":33.592968,"Longitude":130.372407,"Radius":30.0,"GenerationNumber":1,"Name":"当仁小学校前","Kana":"とうにんしょうがっこうまえ","URL":"https://www.j-signal.jp/PicsApi/data/map/40/02626EFE.html","StartDate":"20220131","EndDate":"20991231","DemoFlg":0,"PedestrianSignals":[{"Name":"歩車分離式全方向","Kana":"ほしゃぶんりしきぜんほうこう"},{"Name":"歩車分離式全方向","Kana":"ほしゃぶんりしきぜんほうこう"},{"Name":"","Kana":""},{"Name":"","Kana":""},{"Name":"","Kana":""},{"Name":"","Kana":""}]},{"IntersectionId":"019D9B16","Latitude":34.681420,"Longitude":135.533590,"Radius":47.0,"GenerationNumber":1,"Name":"森ノ宮駅前交差点","Kana":"もりのみやえきまえこうさてん","URL":"https://www.j-signal.jp/PicsApi/data/map/27/019D9B16.html","StartDate":"20220214","EndDate":"20991231","DemoFlg":0,"PedestrianSignals":[{"Name":"東西方向","Kana":"とうざいほうこう"},{"Name":"南北方向","Kana":"なんぼくほうこう"},{"Name":"","Kana":""},{"Name":"","Kana":""},{"Name":"","Kana":""},{"Name":"","Kana":""}]},{"IntersectionId":"019DAAB1","Latitude":34.666095,"Longitude":135.520970,"Radius":31.0,"GenerationNumber":1,"Name":"上本町6丁目東交差点","Kana":"うえほんまちろくちょうめひがしこうさてん","URL":"https://www.j-signal.jp/PicsApi/data/map/27/019DAAB1.html","StartDate":"20220214","EndDate":"20991231","DemoFlg":0,"PedestrianSignals":[{"Name":"東西方向","Kana":"とうざいほうこう"},{"Name":"南北方向","Kana":"なんぼくほうこう"},{"Name":"全ての方向","Kana":"すべてのほうこう"},{"Name":"","Kana":""},{"Name":"","Kana":""},{"Name":"","Kana":""}]},{"IntersectionId":"019DDA81","Latitude":34.601408,"Longitude":135.504097,"Radius":19.0,"GenerationNumber":1,"Name":"我孫子西2丁目南交差点","Kana":"あびこにしにちょうめみなみこうさてん","URL":"https://www.j-signal.jp/PicsApi/data/map/27/019DDA81.html","StartDate":"20220214","EndDate":"20991231","DemoFlg":0,"PedestrianSignals":[{"Name":"南北方向","Kana":"なんぼくほうこう"},{"Name":"東西方向","Kana":"とうざいほうこう"},{"Name":"","Kana":""},{"Name":"","Kana":""},{"Name":"","Kana":""},{"Name":"","Kana":""}]},{"IntersectionId":"018CBA98","Latitude":35.003660,"Longitude":135.751977,"Radius":53.0,"GenerationNumber":1,"Name":"四条堀川交差点","Kana":"しじょうほりかわこうさてん","URL":"https://www.j-signal.jp/PicsApi/data/map/26/018CBA98.html","StartDate":"20220301","EndDate":"20991231","DemoFlg":0,"PedestrianSignals":[{"Name":"堀川通直進方向","Kana":"ほりかわどおりちょくしんほうこう"},{"Name":"四条通直進方向","Kana":"しじょうどおりちょくしんほうこう"},{"Name":"","Kana":""},{"Name":"","Kana":""},{"Name":"","Kana":""},{"Name":"","Kana":""}]},{"IntersectionId":"018CBAA9","Latitude":35.008561,"Longitude":135.751768,"Radius":37.0,"GenerationNumber":1,"Name":"堀川三条交差点","Kana":"ほりかわさんじょうこうさてん","URL":"https://www.j-signal.jp/PicsApi/data/map/26/018CBAA9.html","StartDate":"20220301","EndDate":"20991231","DemoFlg":0,"PedestrianSignals":[{"Name":"堀川通直進方向","Kana":"ほりかわどおりちょくしんほうこう"},{"Name":"三条通直進方向","Kana":"さんじょうどおりちょくしんほうこう"},{"Name":"","Kana":""},{"Name":"","Kana":""},{"Name":"","Kana":""},{"Name":"","Kana":""}]},{"IntersectionId":"018CBAE9","Latitude":35.040878,"Longitude":135.738564,"Radius":42.0,"GenerationNumber":1,"Name":"千本北大路交差点","Kana":"せんぼんきたおおじこうさてん","URL":"https://www.j-signal.jp/PicsApi/data/map/26/018CBAE9.html","StartDate":"20220301","EndDate":"20991231","DemoFlg":0,"PedestrianSignals":[{"Name":"千本通直進方向","Kana":"せんぼんどおりちょくしんほうこう"},{"Name":"北大路通直進方向","Kana":"きたおおじどおりちょくしんほうこう"},{"Name":"","Kana":""},{"Name":"","Kana":""},{"Name":"","Kana":""},{"Name":"","Kana":""}]},{"IntersectionId":"018CBB34","Latitude":35.011064,"Longitude":135.742621,"Radius":37.0,"GenerationNumber":1,"Name":"二条駅東口交差点","Kana":"にじょうえきひがしぐちこうさてん","URL":"https://www.j-signal.jp/PicsApi/data/map/26/018CBB34.html","StartDate":"20220301","EndDate":"20991231","DemoFlg":0,"PedestrianSignals":[{"Name":"千本通直進方向","Kana":"せんぼんどおりちょくしんほうこう"},{"Name":"東西方向","Kana":"とうざいほうこう"},{"Name":"","Kana":""},{"Name":"","Kana":""},{"Name":"","Kana":""},{"Name":"","Kana":""}]},{"IntersectionId":"018CBB40","Latitude":35.003581,"Longitude":135.746121,"Radius":29.0,"GenerationNumber":1,"Name":"壬生川通四条交差点","Kana":"みぶがわどおりしじょうこうさてん","URL":"https://www.j-signal.jp/PicsApi/data/map/26/018CBB40.html","StartDate":"20220301","EndDate":"20991231","DemoFlg":0,"PedestrianSignals":[{"Name":"四条通直進方向","Kana":"しじょうどおりちょくしんほうこう"},{"Name":"壬生川通直進方向","Kana":"みぶがわどおりちょくしんほうこう"},{"Name":"","Kana":""},{"Name":"","Kana":""},{"Name":"","Kana":""},{"Name":"","Kana":""}]},{"IntersectionId":"018CBBCB","Latitude":35.011852,"Longitude":135.751431,"Radius":21.0,"GenerationNumber":1,"Name":"堀川押小路交差点","Kana":"ほりかわおしこうじこうさてん","URL":"https://www.j-signal.jp/PicsApi/data/map/26/018CBBCB.html","StartDate":"20220301","EndDate":"20991231","DemoFlg":0,"PedestrianSignals":[{"Name":"堀川通直進方向","Kana":"ほりかわどおりちょくしんほうこう"},{"Name":"","Kana":""},{"Name":"","Kana":""},{"Name":"","Kana":""},{"Name":"","Kana":""},{"Name":"","Kana":""}]},{"IntersectionId":"018CBBCC","Latitude":34.987156,"Longitude":135.755260,"Radius":30.0,"GenerationNumber":1,"Name":"塩小路西洞院交差点","Kana":"しおこうじにしのとういんこうさてん","URL":"https://www.j-signal.jp/PicsApi/data/map/26/018CBBCC.html","StartDate":"20220301","EndDate":"20991231","DemoFlg":0,"PedestrianSignals":[{"Name":"全ての歩行者用信号","Kana":"すべてのほこうしゃようしんごう"},{"Name":"全ての歩行者用信号","Kana":"すべてのほこうしゃようしんごう"},{"Name":"","Kana":""},{"Name":"","Kana":""},{"Name":"","Kana":""},{"Name":"","Kana":""}]},{"IntersectionId":"018CBC3B","Latitude":35.003579,"Longitude":135.744405,"Radius":24.0,"GenerationNumber":1,"Name":"四条坊城交差点","Kana":"しじょうぼうじょうこうさてん","URL":"https://www.j-signal.jp/PicsApi/data/map/26/018CBC3B.html","StartDate":"20220301","EndDate":"20991231","DemoFlg":0,"PedestrianSignals":[{"Name":"四条通直進方向","Kana":"しじょうどおりちょくしんほうこう"},{"Name":"坊城通直進方向","Kana":"ぼうじょうどおりちょくしんほうこう"},{"Name":"","Kana":""},{"Name":"","Kana":""},{"Name":"","Kana":""},{"Name":"","Kana":""}]},{"IntersectionId":"018CBC3C","Latitude":34.987193,"Longitude":135.757362,"Radius":20.0,"GenerationNumber":1,"Name":"京都駅北西塩小路通交差点","Kana":"きょうとえきほくせいしおこうじどおりこうさてん","URL":"https://www.j-signal.jp/PicsApi/data/map/26/018CBC3C.html","StartDate":"20220301","EndDate":"20991231","DemoFlg":0,"PedestrianSignals":[{"Name":"","Kana":""},{"Name":"南北方向","Kana":"なんぼくほうこう"},{"Name":"","Kana":""},{"Name":"","Kana":""},{"Name":"","Kana":""},{"Name":"","Kana":""}]},{"IntersectionId":"018CBC95","Latitude":35.044776,"Longitude":135.738187,"Radius":34.0,"GenerationNumber":1,"Name":"千本今宮交差点","Kana":"せんぼんいまみやこうさてん","URL":"https://www.j-signal.jp/PicsApi/data/map/26/018CBC95.html","StartDate":"20220301","EndDate":"20991231","DemoFlg":0,"PedestrianSignals":[{"Name":"千本通直進方向","Kana":"せんぼんどおりちょくしんほうこう"},{"Name":"今宮通直進方向","Kana":"いまみやどおりちょくしんほうこう"},{"Name":"","Kana":""},{"Name":"","Kana":""},{"Name":"","Kana":""},{"Name":"","Kana":""}]},{"IntersectionId":"018CBD1F","Latitude":35.042989,"Longitude":135.738360,"Radius":23.0,"GenerationNumber":1,"Name":"千本通佛教大学正門前交差点","Kana":"せんぼんどおりぶっきょうだいがくせいもんまえこうさてん","URL":"https://www.j-signal.jp/PicsApi/data/map/26/018CBD1F.html","StartDate":"20220301","EndDate":"20991231","DemoFlg":0,"PedestrianSignals":[{"Name":"千本通直進方向","Kana":"せんぼんどおりちょくしんほうこう"},{"Name":"東西方向","Kana":"とうざいほうこう"},{"Name":"","Kana":""},{"Name":"","Kana":""},{"Name":"","Kana":""},{"Name":"","Kana":""}]},{"IntersectionId":"018CBDC4","Latitude":35.006150,"Longitude":135.751733,"Radius":37.0,"GenerationNumber":1,"Name":"堀川蛸薬師交差点","Kana":"ほりかわたこやくしこうさてん","URL":"https://www.j-signal.jp/PicsApi/data/map/26/018CBDC4.html","StartDate":"20220301","EndDate":"20991231","DemoFlg":0,"PedestrianSignals":[{"Name":"堀川通直進方向","Kana":"ほりかわどおりちょくしんほうこう"},{"Name":"蛸薬師通直進方向","Kana":"たこやくしどおりちょくしんほうこう"},{"Name":"","Kana":""},{"Name":"","Kana":""},{"Name":"","Kana":""},{"Name":"","Kana":""}]},{"IntersectionId":"018CBE21","Latitude":34.987243,"Longitude":135.761087,"Radius":28.0,"GenerationNumber":1,"Name":"塩小路東洞院交差点","Kana":"しおこうじひがしのとういんこうさてん","URL":"https://www.j-signal.jp/PicsApi/data/map/26/018CBE21.html","StartDate":"20220301","EndDate":"20991231","DemoFlg":0,"PedestrianSignals":[{"Name":"全ての歩行者用信号","Kana":"すべてのほこうしゃようしんごう"},{"Name":"全ての歩行者用信号","Kana":"すべてのほこうしゃようしんごう"},{"Name":"","Kana":""},{"Name":"","Kana":""},{"Name":"","Kana":""},{"Name":"","Kana":""}]},{"IntersectionId":"018CBE99","Latitude":34.984085,"Longitude":135.758244,"Radius":34.0,"GenerationNumber":1,"Name":"京都駅八条口交差点","Kana":"きょうとえきはちじょうぐちこうさてん","URL":"https://www.j-signal.jp/PicsApi/data/map/26/018CBE99.html","StartDate":"20220301","EndDate":"20991231","DemoFlg":0,"PedestrianSignals":[{"Name":"全ての歩行者用信号","Kana":"すべてのほこうしゃようしんごう"},{"Name":"全ての歩行者用信号","Kana":"すべてのほこうしゃようしんごう"},{"Name":"","Kana":""},{"Name":"","Kana":""},{"Name":"","Kana":""},{"Name":"","Kana":""}]},{"IntersectionId":"018CBF04","Latitude":35.003644,"Longitude":135.750440,"Radius":23.0,"GenerationNumber":1,"Name":"四条猪熊交差点","Kana":"しじょういのくまこうさてん","URL":"https://www.j-signal.jp/PicsApi/data/map/26/018CBF04.html","StartDate":"20220301","EndDate":"20991231","DemoFlg":0,"PedestrianSignals":[{"Name":"四条通直進方向","Kana":"しじょうどおりちょくしんほうこう"},{"Name":"猪熊通直進方向","Kana":"いのくまどおりちょくしんほうこう"},{"Name":"","Kana":""},{"Name":"","Kana":""},{"Name":"","Kana":""},{"Name":"","Kana":""}]},{"IntersectionId":"018CBF07","Latitude":34.987184,"Longitude":135.756776,"Radius":25.0,"GenerationNumber":1,"Name":"塩小路新町交差点","Kana":"しおこうじしんまちこうさてん","URL":"https://www.j-signal.jp/PicsApi/data/map/26/018CBF07.html","StartDate":"20220301","EndDate":"20991231","DemoFlg":0,"PedestrianSignals":[{"Name":"全ての歩行者用信号","Kana":"すべてのほこうしゃようしんごう"},{"Name":"全ての歩行者用信号","Kana":"すべてのほこうしゃようしんごう"},{"Name":"","Kana":""},{"Name":"","Kana":""},{"Name":"","Kana":""},{"Name":"","Kana":""}]},{"IntersectionId":"018CBF33","Latitude":34.987192,"Longitude":135.759748,"Radius":39.0,"GenerationNumber":1,"Name":"塩小路烏丸交差点","Kana":"しおこうじからすまこうさてん","URL":"https://www.j-signal.jp/PicsApi/data/map/26/018CBF33.html","StartDate":"20220301","EndDate":"20991231","DemoFlg":0,"PedestrianSignals":[{"Name":"全ての歩行者用信号","Kana":"すべてのほこうしゃようしんごう"},{"Name":"全ての歩行者用信号","Kana":"すべてのほこうしゃようしんごう"},{"Name":"","Kana":""},{"Name":"","Kana":""},{"Name":"","Kana":""},{"Name":"","Kana":""}]},{"IntersectionId":"018CC1B0","Latitude":34.984114,"Longitude":135.759782,"Radius":37.0,"GenerationNumber":1,"Name":"烏丸八条交差点","Kana":"からすまはちじょうこうさてん","URL":"https://www.j-signal.jp/PicsApi/data/map/26/018CC1B0.html","StartDate":"20220301","EndDate":"20991231","DemoFlg":0,"PedestrianSignals":[{"Name":"全ての歩行者用信号","Kana":"すべてのほこうしゃようしんごう"},{"Name":"全ての歩行者用信号","Kana":"すべてのほこうしゃようしんごう"},{"Name":"","Kana":""},{"Name":"","Kana":""},{"Name":"","Kana":""},{"Name":"","Kana":""}]},{"IntersectionId":"018CC1DB","Latitude":35.007339,"Longitude":135.751718,"Radius":37.0,"GenerationNumber":1,"Name":"堀川六角交差点","Kana":"ほりかわろっかくこうさてん","URL":"https://www.j-signal.jp/PicsApi/data/map/26/018CC1DB.html","StartDate":"20220301","EndDate":"20991231","DemoFlg":0,"PedestrianSignals":[{"Name":"堀川通直進方向","Kana":"ほりかわどおりちょくしんほうこう"},{"Name":"六角通直進方向","Kana":"ろっかくどおりちょくしんほうこう"},{"Name":"","Kana":""},{"Name":"","Kana":""},{"Name":"","Kana":""},{"Name":"","Kana":""}]},{"IntersectionId":"018CC1DC","Latitude":35.004927,"Longitude":135.751763,"Radius":37.0,"GenerationNumber":1,"Name":"堀川錦小路交差点","Kana":"ほりかわにしきこうじこうさてん","URL":"https://www.j-signal.jp/PicsApi/data/map/26/018CC1DC.html","StartDate":"20220301","EndDate":"20991231","DemoFlg":0,"PedestrianSignals":[{"Name":"堀川通直進方向","Kana":"ほりかわどおりちょくしんほうこう"},{"Name":"錦小路通直進方向","Kana":"にしきこうじどおりちょくしんほうこう"},{"Name":"","Kana":""},{"Name":"","Kana":""},{"Name":"","Kana":""},{"Name":"","Kana":""}]},{"IntersectionId":"018CC1FA","Latitude":34.724852,"Longitude":135.788656,"Radius":34.0,"GenerationNumber":1,"Name":"高の原駅西交差点","Kana":"たかのはらえきにしこうさてん","URL":"https://www.j-signal.jp/PicsApi/data/map/26/018CC1FA.html","StartDate":"20220301","EndDate":"20991231","DemoFlg":0,"PedestrianSignals":[{"Name":"東西方向","Kana":"とうざいほうこう"},{"Name":"南北方向","Kana":"なんぼくほうこう"},{"Name":"","Kana":""},{"Name":"","Kana":""},{"Name":"","Kana":""},{"Name":"","Kana":""}]},{"IntersectionId":"018CC3C6","Latitude":35.039408,"Longitude":135.739072,"Radius":23.0,"GenerationNumber":1,"Name":"千本通京都ライトハウス前交差点","Kana":"せんぼんどおりきょうとらいとはうすまえこうさてん","URL":"https://www.j-signal.jp/PicsApi/data/map/26/018CC3C6.html","StartDate":"20220301","EndDate":"20991231","DemoFlg":0,"PedestrianSignals":[{"Name":"千本通直進方向","Kana":"せんぼんどおりちょくしんほうこう"},{"Name":"東西方向","Kana":"とうざいほうこう"},